,postcode,house_price,area,size,purchase_price,lat,lon
0,1011 AJ Netherlands,807000.0,130.0,115.0,490480.6530612245,52.3745416,4.9045706
1,1011 AN Netherlands,900000.0,155.0,170.0,390200.5950413223,52.3743188,4.905028199999999
2,1011 AV Netherlands,695000.0,155.0,,750045.4545454546,52.3731482,4.906685599999999
3,1011 BG Netherlands,1425000.0,267.0,109.0,655789.6,52.3740087,4.9039155
4,1011 BH Netherlands,419000.0,75.0,223.33333333333334,949899.2142857143,52.3735793,4.904419499999999
5,1011 BS Netherlands,899000.0,123.0,91.75,764810.0,52.375083,4.9028759
6,1011 BZ Netherlands,325000.0,44.0,57.333333333333336,188151.34615384616,52.3730998,4.9036464
7,1011 CL Netherlands,550000.0,80.0,19.75,316050.25,52.373608,4.9026276
8,1011 CV Netherlands,1185000.0,213.0,63.30434782608695,473679.3846153846,52.37243350000001,4.903345300000001
9,1011 DG Netherlands,435000.0,83.0,,465543.4314720812,52.3764615,4.9059301
10,1011 EJ Netherlands,595000.0,96.0,23.0,3777953.557894737,52.3753776,4.9023881
11,1011 GZ Netherlands,385000.0,50.0,,302308.6956521739,52.37030379999999,4.9012541
12,1011 HL Netherlands,445000.0,68.0,,221423.16666666666,52.3700182,4.8995539
13,1011 HV Netherlands,1000000.0,141.0,176.9090909090909,1163136.8846153845,52.369331,4.8985337
14,1011 HZ Netherlands,612500.0,98.0,40.0,553976.6666666666,52.3688207,4.8990385
15,1011 JH Netherlands,950000.0,122.0,75.6,347187.25925925927,52.368407,4.8989697
16,1011 JP Netherlands,800000.0,113.0,116.33333333333333,356463.4705882353,52.3726666,4.901008
17,1011 KA Netherlands,935000.0,117.0,706.0,5426721.357798165,52.3745416,4.9045706
18,1011 KD Netherlands,895000.0,144.0,85.0,1598000.0,52.37646059999999,4.9079127
19,1011 KH Netherlands,3250000.0,293.0,70.15384615384616,333831.94444444444,52.36994259999999,4.898644399999999
20,1011 KW Netherlands,750000.0,110.0,137.0,325331.3846153846,52.3703572,4.9033092
21,1011 LM Netherlands,325000.0,50.0,703.0,1012506.2825112108,52.3707542,4.9059039
22,1011 MH Netherlands,499000.0,95.0,,366884.6462585034,52.369474,4.9071219
23,1011 MK Netherlands,440000.0,77.0,,256002.0,52.3693354,4.908415499999999
24,1011 NA Netherlands,275000.0,49.0,,7241646.4,52.3698157,4.9071769
25,1011 NS Netherlands,750000.0,126.0,,467737.9310344828,52.3688101,4.9030178
26,1011 PG Netherlands,325000.0,68.0,83.05555555555556,365051.2110091743,52.3674944,4.9021512
27,1011 RL Netherlands,750000.0,91.5,,383316.82352941175,52.3663117,4.903045
28,1011 SC Netherlands,350000.0,53.0,,270156.0,52.3687347,4.9087744
29,1011 TB Netherlands,885000.0,160.0,,497280.40566037735,52.3719544,4.9092977
30,1011 TJ Netherlands,700000.0,139.0,81.71428571428571,394985.4418604651,52.3719054,4.9082997
31,1011 TL Netherlands,370000.0,51.0,57.0,285831.0,52.3719498,4.908167
32,1011 TR Netherlands,298000.0,51.0,111.0,456930.48484848486,52.3709231,4.9121134
33,1011 TX Netherlands,390000.0,56.5,,307150.1111111111,52.3718032,4.9074784
34,1011 TZ Netherlands,460000.0,61.0,110.46666666666667,254731.50746268657,52.3712057,4.9086303
35,1011 VK Netherlands,350000.0,37.0,,4526850.757281553,52.3693819,4.9087968
36,1011 VM Netherlands,895000.0,151.0,440.0,1355052.5737704919,52.368374,4.906267499999999
37,1011 VP Netherlands,300000.0,40.0,275.04347826086956,580900.58,52.3706036,4.9086514
38,1012 AE Netherlands,474000.0,61.0,33.32,795960.3663716814,52.37672250000001,4.9016097
39,1012 AL Netherlands,665000.0,110.0,278.0,780686.0412371134,52.3760391,4.901529
40,1012 BH Netherlands,1750000.0,190.0,107.13793103448276,1076312.5148514851,52.3759958,4.9019113
41,1012 BJ Netherlands,249000.0,32.0,287.1792452830189,4632490.5,52.3751307,4.901362799999999
42,1012 DA Netherlands,1750000.0,270.0,56.10909090909091,927163.5915492958,52.3733862,4.8940639
43,1012 DE Netherlands,275000.0,38.0,51.04761904761905,2941187.619047619,52.3733862,4.8940639
44,1012 EH Netherlands,399000.0,50.0,61.714285714285715,2774572.282352941,52.3749365,4.9000432
45,1012 GH Netherlands,398750.0,62.5,1093.66,335912.037037037,52.3730808,4.896833
46,1012 GM Netherlands,625000.0,113.0,77.77777777777777,422278.5263157895,52.3696002,4.894111
47,1012 GR Netherlands,424500.0,95.0,65.35714285714286,440394.4895104895,52.3753007,4.8989819
48,1012 HL Netherlands,300000.0,52.0,55.36363636363637,397894.91503267974,52.3716424,4.8945729
49,1012 JD Netherlands,375000.0,48.0,157.5,879868.7826086957,52.3760297,4.8992235
50,1012 JS Netherlands,1310000.0,129.0,483.67857142857144,25729134.333333332,52.3726381,4.894106600000001
51,1012 JV Netherlands,1085000.0,162.0,144.71428571428572,875872.48,52.37475180000001,4.896653
52,1012 LR Netherlands,399000.0,53.0,48.326530612244895,1688596.7671232878,52.376812,4.8971442
53,1012 NB Netherlands,475000.0,47.0,28.81081081081081,269016.2926829268,52.3770132,4.8958203
54,1012 NC Netherlands,375000.0,68.0,50.63636363636363,312203.2105263158,52.3764455,4.895474099999999
55,1012 NE Netherlands,860000.0,96.0,169.7872340425532,222195.7950310559,52.3758024,4.894277
56,1012 NH Netherlands,539333.3333333334,95.66666666666667,69.8,4024923.6455026455,52.3753438,4.8942087
57,1012 PV Netherlands,592000.0,88.5,214.48235294117646,6247302.0,52.3761545,4.8946402
58,1012 RK Netherlands,1397500.0,206.5,112.25,1636712.3529411764,52.3720936,4.890705899999999
59,1012 SJ Netherlands,815000.0,185.0,532.8666666666667,2767780.8735632184,52.3744059,4.8912968
60,1012 SN Netherlands,434666.6666666667,60.0,79.28888888888889,1416725.9882352941,52.3777669,4.895503499999999
61,1012 SR Netherlands,425000.0,66.0,119.58333333333333,549678.2535211268,52.3762908,4.8928471
62,1012 SZ Netherlands,275000.0,36.0,282.0,529048.6,52.3733862,4.8940639
63,1012 TV Netherlands,285000.0,36.0,108.33333333333333,495189.0,52.3761454,4.8924669
64,1012 VG Netherlands,325000.0,66.0,87.03076923076924,629257.2427184467,52.3758799,4.891295
65,1012 VK Netherlands,495000.0,66.0,119.0,727016.7058823529,52.3745256,4.8898416
66,1012 VN Netherlands,461840.0,58.0,219.92307692307693,16921531.873015873,52.37172,4.889506
67,1012 WP Netherlands,495000.0,70.0,89.66666666666667,4415920.283687944,52.3672935,4.8905541
68,1012 ZK Netherlands,419000.0,56.0,254.0,336257.0,52.37483700000001,4.895536000000001
69,1013 AK Netherlands,647829.1851851852,121.33333333333333,550.0,1061111.0,52.3978834,4.8831735
70,1013 AM Netherlands,28500.0,10.0,2031.7878787878788,807122.2424242424,52.3962442,4.8760811
71,1013 AS Netherlands,639000.0,86.0,,354491.8961038961,52.3846232,4.8930479
72,1013 AW Netherlands,34000.0,12.0,,313932.4700693132,52.3904305,4.891191
73,1013 BD Netherlands,521250.0,91.0,1308.6666666666667,191610.27634660422,52.3946105,4.8744691
74,1013 BH Netherlands,724500.0,109.5,,24615066.867279895,52.3843833,4.8915524
75,1013 BX Netherlands,1500000.0,190.0,,2963444.1415384617,52.386294,4.8928237
76,1013 CL Netherlands,225000.0,46.0,,206232.41463414635,52.3898096,4.8804006
77,1013 CS Netherlands,275000.0,56.0,,200149.09433962265,52.3888155,4.881234699999999
78,1013 CW Netherlands,825000.0,113.5,,247891.0588235294,52.3875892,4.886625
79,1013 DW Netherlands,250000.0,50.0,,156150.0,52.39133169999999,4.8769604
80,1013 EA Netherlands,795000.0,158.0,63.26315789473684,213421.27388535033,52.3796508,4.892515899999999
81,1013 EC Netherlands,1695000.0,258.0,79.3076923076923,483912.8461538461,52.3823433,4.8894602
82,1013 GE Netherlands,600000.0,85.0,598.125,1171737.661971831,52.3797836,4.894174
83,1013 GL Netherlands,525000.0,86.5,116.06666666666666,312634.2051282051,52.3806746,4.892313500000001
84,1013 GM Netherlands,220000.0,35.0,394.0,839953.2767527675,52.382556,4.8887528
85,1013 HB Netherlands,875000.0,125.0,,320491.40458015265,52.3809444,4.8880659
86,1013 HC Netherlands,625000.0,104.0,,535813.3071895425,52.3812923,4.8874451
87,1013 HX Netherlands,425000.0,66.5,,226531.77142857143,52.38261499999999,4.8878121
88,1013 JL Netherlands,350000.0,53.0,68.81818181818181,469181.0138248848,52.3815913,4.8880146
89,1013 KN Netherlands,289000.0,53.0,51.94736842105263,178487.6923076923,52.3843007,4.8890123
90,1013 KX Netherlands,834500.0,132.5,960.0,496082.8,52.385526,4.889703600000001
91,1013 LA Netherlands,511333.3333333333,71.0,146.0,1335172.731610338,52.3842363,4.8886458
92,1013 LB Netherlands,637500.0,98.0,153.6,935505.0903225807,52.3875843,4.8875946
93,1013 LL Netherlands,953750.0,119.5,114.14285714285714,600275.1395348837,52.3861378,4.8877137
94,1013 LM Netherlands,575000.0,81.0,234.88888888888889,511804.50837988826,52.3859897,4.8867018
95,1013 NN Netherlands,306250.0,42.75,,249709.14285714287,52.3886578,4.8864073
96,1013 PT Netherlands,212500.0,35.0,,159664.2857142857,52.3898148,4.8858507
97,1013 RJ Netherlands,425000.0,79.5,,228928.55223880598,52.3903116,4.8821872
98,1013 RK Netherlands,637500.0,125.5,,310190.5714285714,52.39011439999999,4.884437
99,1013 RZ Netherlands,300000.0,59.0,,224972.22222222222,52.390575,4.8724004
100,1013 SC Netherlands,312500.0,55.5,,213447.8260869565,52.3913433,4.8713337
101,1013 VB Netherlands,239000.0,46.0,,188951.03703703705,52.3906773,4.8773499
102,1015 AD Netherlands,1466666.6666666667,190.66666666666666,116.52631578947368,694762.703125,52.3768061,4.8914168
103,1015 AE Netherlands,1375000.0,150.0,221.0,480662.3623853211,52.3760929,4.8906464
104,1015 AT Netherlands,350000.0,35.0,60.0,325527.84210526315,52.3766948,4.8905956
105,1015 AW Netherlands,845000.0,113.0,39.45454545454545,250004.2,52.3746914,4.8886503
106,1015 BD Netherlands,750000.0,100.0,78.0,7899410.895522388,52.3774864,4.890748299999999
107,1015 BS Netherlands,887000.0,115.0,450.6470588235294,820367.762962963,52.376437,4.88913
108,1015 BT Netherlands,840000.0,111.0,531.5862068965517,1702162.312328767,52.37566109999999,4.8884191
109,1015 CB Netherlands,1900000.0,264.0,78.07692307692308,1425816.2138728325,52.3773063,4.8885328
110,1015 CE Netherlands,1742000.0,210.0,339.0,455462.8203125,52.3781347,4.8888906
111,1015 CG Netherlands,3450000.0,463.0,88.0,357792.7586206897,52.3775211,4.8883101
112,1015 CH Netherlands,2300000.0,237.0,377.3333333333333,2000156.4285714286,52.37718719999999,4.8880054
113,1015 CP Netherlands,1267500.0,153.5,493.0,1239994.7191011235,52.3793405,4.8892295
114,1015 CT Netherlands,1495000.0,237.0,249.0,694330.6829268293,52.3778337,4.887851299999999
115,1015 CV Netherlands,675000.0,100.0,254.0344827586207,675589.4606741572,52.3773646,4.887430699999999
116,1015 CW Netherlands,500000.0,74.0,832.0,1025925.2422907489,52.3767691,4.886894
117,1015 DG Netherlands,1345000.0,141.0,167.875,466354.125,52.3752586,4.8867495
118,1015 DL Netherlands,350000.0,44.0,123.8,515826.74074074073,52.3791265,4.8875136
119,1015 DT Netherlands,1095000.0,167.0,178.0,423235.5794392523,52.3767718,4.8854107
120,1015 DW Netherlands,1650000.0,168.0,46.666666666666664,254186.39306358382,52.3784018,4.8861706
121,1015 GD Netherlands,585000.0,91.0,75.5,291048.0243902439,52.380771,4.887451
122,1015 GH Netherlands,285000.0,39.0,201.0,209917.36787564767,52.3820109,4.885233899999999
123,1015 GK Netherlands,500000.0,82.0,,368100.7012448133,52.3830813,4.883312399999999
124,1015 GL Netherlands,405000.0,59.5,55.2,275930.7570332481,52.382577,4.883083099999999
125,1015 HC Netherlands,450000.0,71.0,49.75,482540.0,52.3747206,4.87862
126,1015 JE Netherlands,525000.0,76.0,,324300.0,52.3811046,4.883467
127,1015 JM Netherlands,479000.0,74.0,,231183.92307692306,52.3803267,4.882286199999999
128,1015 JN Netherlands,325000.0,47.0,92.0,475485.4854368932,52.380188,4.8813772
129,1015 KE Netherlands,595000.0,75.0,39.0,287205.1376146789,52.3799088,4.8833631
130,1015 KL Netherlands,885000.0,115.0,65.23076923076923,318877.96078431373,52.3801892,4.8837712
131,1015 KN Netherlands,575000.0,85.0,101.25,289302.167192429,52.3798652,4.8815571
132,1015 MT Netherlands,700000.0,110.0,43.0,532806.5540540541,52.37790829999999,4.8800227
133,1015 ND Netherlands,450000.0,45.0,142.13333333333333,323820.2878228782,52.3780005,4.8847947
134,1015 NV Netherlands,510000.0,91.0,64.0,418456.7403314917,52.3767486,4.8799478
135,1015 PA Netherlands,649000.0,95.0,,368503.0508474576,52.3767909,4.8814453
136,1015 PB Netherlands,649000.0,92.0,58.93103448275862,363737.1186440678,52.3766168,4.880669
137,1015 PE Netherlands,1075000.0,157.0,85.88888888888889,348751.19024390244,52.3776234,4.884887099999999
138,1015 PL Netherlands,1400000.0,183.0,,296330.4090909091,52.3772096,4.8847889
139,1015 PR Netherlands,339000.0,41.0,,391528.77777777775,52.3767149,4.8825917
140,1015 RR Netherlands,1212500.0,149.5,92.16666666666667,377071.224137931,52.3758607,4.880398599999999
141,1015 RS Netherlands,399000.0,69.0,,242051.71698113208,52.3754562,4.8782885
142,1015 SB Netherlands,285000.0,53.0,,245608.0,52.37661420000001,4.8821669
143,1015 SE Netherlands,650000.0,73.0,79.15068493150685,732719.3424657534,52.376193,4.880350700000001
144,1015 TJ Netherlands,975000.0,156.0,97.66666666666667,295504.0,52.375259,4.882622899999999
145,1015 TM Netherlands,2500000.0,413.0,102.33333333333333,609975.7209302326,52.37481039999999,4.8807043
146,1015 TP Netherlands,600000.0,81.0,112.0,359757.9166666667,52.3745449,4.8795619
147,1015 TT Netherlands,1300000.0,140.0,131.48275862068965,494485.61832061067,52.3742976,4.878477999999999
148,1015 TV Netherlands,1675000.0,200.0,88.0,752357.2972972973,52.3741053,4.8776432
149,1015 VV Netherlands,225000.0,30.0,79.5,108697.64705882352,52.3803359,4.8802446
150,1015 WE Netherlands,192000.0,25.5,,176007.58720930232,52.3761368,4.877722599999999
151,1016 AA Netherlands,950000.0,81.0,158.0,683723.78335535,52.37421579999999,4.8888318
152,1016 AC Netherlands,1690000.0,241.0,126.47368421052632,2908704.7741935486,52.3727217,4.88832
153,1016 AG Netherlands,1695000.0,275.0,76.25396825396825,2397596.5714285714,52.37017609999999,4.8878347
154,1016 AH Netherlands,1990000.0,313.0,103.3913043478261,1148239.4074074074,52.3696721,4.8876788
155,1016 BE Netherlands,1588333.3333333333,203.66666666666666,680.1538461538462,1366560.1812297734,52.3743108,4.887905600000001
156,1016 BH Netherlands,1595000.0,202.0,100.61538461538461,781987.25,52.37156710000001,4.8873345
157,1016 BS Netherlands,900000.0,136.0,112.0,3343929.3902439023,52.3731381,4.8868909
158,1016 BV Netherlands,895000.0,146.5,693.4,2969750.265060241,52.3716185,4.8867318
159,1016 CJ Netherlands,900000.0,93.33333333333333,157.0,707327.5294117647,52.368004,4.8864055
160,1016 CR Netherlands,625000.0,109.0,156.3548387096774,899542.5283018867,52.3660257,4.881920399999999
161,1016 CS Netherlands,1150000.0,168.0,117.66666666666667,943245.3548387097,52.36576179999999,4.8811746
162,1016 CT Netherlands,2000000.0,325.0,95.94736842105263,641719.1851851852,52.3655708,4.8806483
163,1016 CX Netherlands,930000.0,131.0,131.56,541175.8051948051,52.3655501,4.8800025
164,1016 DV Netherlands,2950000.0,440.0,158.25,5760252.4772727275,52.37354879999999,4.8862401
165,1016 EJ Netherlands,950000.0,140.0,1322.1666666666667,1128058.1550591327,52.3683481,4.8848746
166,1016 EL Netherlands,3250000.0,339.0,90.0,1275554.2,52.36720709999999,4.8849903
167,1016 ES Netherlands,729000.0,138.0,61.0,487924.0,52.3688472,4.8859996
168,1016 EX Netherlands,925000.0,171.0,162.0,872613.3684210526,52.37053,4.8843947
169,1016 GX Netherlands,817500.0,105.0,348.0,486809.86516853934,52.3724847,4.8832859
170,1016 HA Netherlands,1825000.0,252.0,105.85714285714286,926456.5555555555,52.37483779999999,4.882892
171,1016 HZ Netherlands,795000.0,100.0,56.833333333333336,501171.2676056338,52.3683549,4.882246299999999
172,1016 KG Netherlands,750000.0,79.0,,1062290.7045454546,52.3744314,4.8803415
173,1016 KL Netherlands,1375000.0,185.0,88.5,679784.5123966942,52.3739825,4.878349399999999
174,1016 KX Netherlands,600000.0,80.0,45.095238095238095,348884.37209302327,52.373774,4.880040699999999
175,1016 LC Netherlands,897000.0,117.0,59.5,2234726.896551724,52.374285,4.8818263
176,1016 LN Netherlands,450000.0,104.0,49.0,270407.632034632,52.3731017,4.8783596
177,1016 NA Netherlands,625000.0,118.0,107.0,1628749.7222222222,52.3724681,4.877309599999999
178,1016 NB Netherlands,800000.0,128.0,130.0,255959.24324324325,52.3738831,4.882433
179,1016 NM Netherlands,749000.0,134.0,,77143.0,52.3730014,4.8822228
180,1016 NT Netherlands,275000.0,42.0,,224068.576,52.36803399999999,4.8828813
181,1016 PS Netherlands,1250000.0,166.0,,262247.0909090909,52.371702,4.8789042
182,1016 RB Netherlands,350000.0,53.0,79.5,331351.35135135136,52.3718374,4.8790495
183,1016 RG Netherlands,2100000.0,247.0,613.968152866242,7716414.360703812,52.371161,4.8805991
184,1016 RL Netherlands,770000.0,143.0,214.0,573881.8111111111,52.371823,4.8819719
185,1016 RP Netherlands,825000.0,132.0,54.0,819027.7777777778,52.3712745,4.879819599999999
186,1016 RZ Netherlands,325000.0,55.0,79.0,212629.0,52.3724847,4.8832859
187,1016 SG Netherlands,1375000.0,204.0,169.13953488372093,306221.34437086096,52.3706609,4.8813537
188,1016 SX Netherlands,795000.0,146.0,74.51020408163265,606497.4390243902,52.3720465,4.87542
189,1016 TA Netherlands,695000.0,124.0,84.14285714285714,282939.0945273632,52.371488,4.8751329
190,1016 TB Netherlands,425000.0,73.0,830.0,570718.5714285715,52.3734343,4.8762705
191,1016 TZ Netherlands,365000.0,43.0,68.0,1241235.294117647,52.3724847,4.8832859
192,1016 VR Netherlands,612500.0,84.5,397.0,805355.3051643192,52.3681967,4.8809853
193,1016 VX Netherlands,849000.0,128.0,,1222985.0350877193,52.3700344,4.8777779
194,1016 XA Netherlands,625000.0,118.0,282.74226804123714,2394830.0872374796,52.3680719,4.879122
195,1016 XM Netherlands,550000.0,87.0,117.55555555555556,281602.7272727273,52.36631089999999,4.8813739
196,1017 AD Netherlands,574500.0,87.5,77.94117647058823,744427.8802083334,52.3669461,4.897767099999999
197,1017 AG Netherlands,790000.0,111.0,184.9,7582661.68115942,52.3665505,4.899915099999999
198,1017 AK Netherlands,1800000.0,228.0,140.4,863277.8823529412,52.3645152,4.901111999999999
199,1017 AL Netherlands,1200000.0,152.0,209.14285714285714,828404.4545454546,52.3668615,4.8990601
200,1017 BA Netherlands,415000.0,68.0,108.6078431372549,497790.4680851064,52.36803560000001,4.887506399999999
201,1017 BS Netherlands,682500.0,75.5,351.4,2621214.338983051,52.3660955,4.8899215
202,1017 CH Netherlands,1900000.0,235.0,308.48,754006.2857142857,52.36501639999999,4.8984197
203,1017 DM Netherlands,549000.0,82.0,505.0,543865.2638888889,52.3653773,4.8879915
204,1017 DN Netherlands,825000.0,85.0,,476423.9682539682,52.3639263,4.8807111
205,1017 DS Netherlands,649000.0,80.0,714.3333333333334,2343899.65,52.36396999999999,4.8931752
206,1017 DT Netherlands,542500.0,62.0,59.18181818181818,620449.2948717949,52.36629509999999,4.8968493
207,1017 EM Netherlands,11000000.0,1.954,436.22222222222223,1186459.1794871795,52.36466799999999,4.888161
208,1017 EV Netherlands,1090000.0,135.66666666666666,356.5076923076923,900703.8214285715,52.36332849999999,4.8945184
209,1017 EW Netherlands,3980000.0,373.0,122.42857142857143,1213690.6225165562,52.3632018,4.8964724
210,1017 GG Netherlands,775000.0,112.0,84.625,825154.6060606061,52.36352840000001,4.8885995
211,1017 GH Netherlands,330000.0,44.0,163.5,1011811.1549295775,52.3640481,4.892513699999999
212,1017 GM Netherlands,1247250.0,151.25,86.55555555555556,5913610.909090909,52.3654558,4.8853038
213,1017 GW Netherlands,550000.0,81.0,160.65346534653466,3098770.3076923075,52.3628547,4.892982099999999
214,1017 HA Netherlands,550000.0,91.0,79.18181818181819,963603.7777777778,52.36279099999999,4.8927773
215,1017 JH Netherlands,2340000.0,238.0,179.61290322580646,688303.3170731707,52.36253420000001,4.9002234
216,1017 JJ Netherlands,5735000.0,690.0,211.33333333333334,571292.8695652174,52.3626812,4.900985299999999
217,1017 JM Netherlands,290000.0,46.0,138.0,705701.2692307692,52.362148,4.9002864
218,1017 JP Netherlands,3650000.0,363.0,88.26666666666667,934481.3333333334,52.3585115,4.8989464
219,1017 JW Netherlands,1500000.0,216.0,152.6153846153846,1464026.0,52.3648172,4.8851935
220,1017 JX Netherlands,1890000.0,297.0,207.35,568496.5128205129,52.364076,4.8863177
221,1017 KG Netherlands,2224500.0,201.5,159.25,1202647.0588235294,52.36436699999999,4.8849931
222,1017 KJ Netherlands,810000.0,136.0,225.22222222222223,607545.7810650888,52.3633399,4.8865169
223,1017 KP Netherlands,1216666.6666666667,183.33333333333334,68.83333333333333,475741.15789473685,52.3618938,4.8953124
224,1017 LC Netherlands,935000.0,114.0,116.55555555555556,695925.1436464088,52.3614451,4.895478799999999
225,1017 NA Netherlands,1044000.0,174.0,219.625,1202531.75,52.3662244,4.899302
226,1017 PH Netherlands,300000.0,49.0,70.0,918932.9189189189,52.36492819999999,4.881698
227,1017 PW Netherlands,425000.0,52.0,189.71428571428572,793129.3492063492,52.364627,4.8827291
228,1017 PZ Netherlands,400000.0,70.0,89.66666666666667,1389319.0344827587,52.3630997,4.8849928
229,1017 RM Netherlands,2275000.0,221.0,50.857142857142854,620848.052631579,52.3616438,4.8871234
230,1017 RV Netherlands,465000.0,63.0,662.0,458346.71186440677,52.36235989999999,4.884325800000001
231,1017 SP Netherlands,675000.0,76.0,72.66666666666667,562496.7948717949,52.3610116,4.8885397
232,1017 SX Netherlands,520000.0,70.0,105.0,4056710.9166666665,52.3613136,4.8898136
233,1017 TA Netherlands,422500.0,61.5,109.0,365854.0909090909,52.3662244,4.899302
234,1017 TC Netherlands,150000.0,110.0,190.0,445590.5714285714,52.3611865,4.8938228
235,1017 TJ Netherlands,285000.0,41.0,,183059.03157894738,52.3602435,4.8939948
236,1017 VT Netherlands,650000.0,79.0,88.5,780593.5027624309,52.3614425,4.8991931
237,1017 VV Netherlands,1195000.0,198.0,231.82608695652175,739329.6605504587,52.3657183,4.8964592
238,1017 WD Netherlands,550000.0,75.0,50.714285714285715,320469.3333333333,52.36173410000001,4.9001588
239,1017 XA Netherlands,479000.0,80.0,49.285714285714285,582867.4968553459,52.3600685,4.8929838
240,1017 XB Netherlands,700000.0,112.0,346.27272727272725,437229.6285714286,52.3599849,4.8944673
241,1017 XR Netherlands,1225000.0,160.0,156.86111111111111,796051.1642857143,52.3594333,4.893680799999999
242,1017 XS Netherlands,1000000.0,153.0,187.14285714285714,41937486.41860465,52.3593494,4.895105699999999
243,1017 XW Netherlands,1100000.0,145.0,113.6,457370.8125,52.3589565,4.893568699999999
244,1017 ZL Netherlands,672500.0,100.5,,274784.59102902375,52.3592076,4.8977644
245,1017 ZR Netherlands,2535000.0,413.6666666666667,165.66666666666666,570189.92,52.3584171,4.8935306
246,1017 ZV Netherlands,846500.0,155.5,,336529.5360824742,52.3581574,4.8980989
247,1018 AD Netherlands,435000.0,74.0,460.0,1063339.7932379714,52.36749589999999,4.9181406
248,1018 AK Netherlands,661333.3333333334,128.66666666666666,,921082.0715502555,52.3687523,4.9314743
249,1018 AM Netherlands,640000.0,121.0,,380668.53571428574,52.367518,4.9306941
250,1018 AR Netherlands,400000.0,73.0,,221302.37209302327,52.3699617,4.9212128
251,1018 BH Netherlands,700000.0,107.0,170.06451612903226,3836471.6564885494,52.368306,4.9184404
252,1018 CL Netherlands,65000.0,589.0,182.66666666666666,445576.96,52.3637615,4.921556799999999
253,1018 EX Netherlands,1050000.0,176.0,309.6923076923077,4807987.3,52.3612169,4.9077838
254,1018 EZ Netherlands,499000.0,67.0,,347589.28571428574,52.3614825,4.909014099999999
255,1018 GD Netherlands,495000.0,96.0,182.0,343444.0625,52.3621802,4.9126474
256,1018 GG Netherlands,895000.0,170.0,,442788.8888888889,52.3625385,4.9145816
257,1018 HA Netherlands,985000.0,142.0,139.44444444444446,808034.4827586206,52.3601413,4.9062834
258,1018 JP Netherlands,437500.0,104.0,,293571.4285714286,52.3746261,4.921178500000001
259,1018 LP Netherlands,407500.0,79.0,,233146.20952380952,52.3714212,4.9221225
260,1018 LR Netherlands,325000.0,59.0,,221338.98305084746,52.3707186,4.9217188
261,1018 NK Netherlands,399000.0,85.0,,271186.3703703704,52.3704337,4.9293132
262,1018 NL Netherlands,152500.0,28.5,,186471.3829787234,52.3683871,4.9180909
263,1018 PS Netherlands,375000.0,56.0,58.0,179394.95454545456,52.3697588,4.9290999
264,1018 RL Netherlands,210000.0,38.0,,165567.60784313726,52.3692763,4.9298391
265,1018 SK Netherlands,400000.0,77.0,210.0,420244.3541666667,52.369961,4.9302578
266,1018 SP Netherlands,950000.0,130.0,101.85714285714286,516484.0,52.3666594,4.9090023
267,1018 TE Netherlands,695000.0,105.0,,305452.54545454547,52.3638943,4.9164903
268,1018 TT Netherlands,999500.0,154.0,1.0,489849.45454545453,52.3640072,4.9177811
269,1018 TZ Netherlands,325000.0,50.0,,248728.3875,52.3661665,4.9071283
270,1018 VD Netherlands,700000.0,110.0,54.0,355491.77777777775,52.3658644,4.9079831
271,1018 VG Netherlands,649000.0,105.0,,287238.55555555556,52.3654611,4.9082811
272,1018 VR Netherlands,649000.0,93.0,456.2173913043478,618826.6666666666,52.3638209,4.907183
273,1018 VT Netherlands,449000.0,61.0,,280405.8360655738,52.3636188,4.9083157
274,1018 WA Netherlands,425000.0,74.0,,2666321.119047619,52.3723292,4.9221717
275,1018 WC Netherlands,587000.0,88.0,87.0,1237749.1276595744,52.3638267,4.910838699999999
276,1018 WL Netherlands,475000.0,75.0,91.0,642512.8205128205,52.3628007,4.9082511
277,1018 WV Netherlands,1600000.0,149.0,76.0,566756.3636363636,52.362782,4.9103214
278,1018 WW Netherlands,579000.0,101.0,,234512.59278350516,52.36760160000001,4.9221626
279,1018 XE Netherlands,350000.0,71.0,165.0,299671.39285714284,52.362291,4.9111341
280,1018 ZN Netherlands,370000.0,70.0,,149859.625,52.3642129,4.9063273
281,1018 ZW Netherlands,438333.3333333333,90.66666666666667,,149583.7922705314,52.3731126,4.924836099999999
282,1019 AX Netherlands,816666.6666666666,139.66666666666666,,282250.0770975057,52.3731837,4.9458196
283,1019 AZ Netherlands,489000.0,105.0,617.0,1877929.7941767068,52.3693913,4.9340373
284,1019 BB Netherlands,697500.0,124.5,,399366.55684454757,52.3741441,4.9359418
285,1019 BK Netherlands,550000.0,99.0,,325652.74418604653,52.3776399,4.931147999999999
286,1019 BL Netherlands,45000.0,22.0,,1175000.0,52.3759357,4.9273913
287,1019 CV Netherlands,325000.0,65.0,,201648.64864864864,52.368454,4.940463299999999
288,1019 DJ Netherlands,350000.0,79.0,,200756.46296296295,52.3690004,4.9352453
289,1019 DP Netherlands,412000.0,94.5,,285408.0752688172,52.3706927,4.9359182
290,1019 DV Netherlands,349000.0,81.0,,9375769.234567901,52.3744516,4.9317682
291,1019 EC Netherlands,285000.0,54.0,,207448.27586206896,52.3684665,4.9413883
292,1019 GR Netherlands,250000.0,61.0,,199400.0,52.368631,4.9444994
293,1019 HD Netherlands,725000.0,112.0,,386831.9763779527,52.3765418,4.9237871
294,1019 HJ Netherlands,400000.0,85.0,,187152.70857142858,52.3692647,4.943333099999999
295,1019 HM Netherlands,725000.0,135.0,,53859164.98611111,52.3758776,4.9263199
296,1019 HS Netherlands,400000.0,77.0,,219936.78415300546,52.3692674,4.9440526
297,1019 HZ Netherlands,432500.0,100.0,,298130.54390934843,52.3711855,4.937880799999999
298,1019 KE Netherlands,475000.0,100.0,,307015.2167832168,52.370298,4.9384919
299,1019 KR Netherlands,500000.0,94.0,,246424.28708133972,52.3716121,4.9413566
300,1019 KX Netherlands,400000.0,77.0,,269976.6785714286,52.3707177,4.940146899999999
301,1019 LD Netherlands,500000.0,106.0,,254497.2191780822,52.3773232,4.942400699999999
302,1019 LH Netherlands,500000.0,105.0,,237766.00975609757,52.3773548,4.943633999999999
303,1019 LL Netherlands,600000.0,120.0,,333691.9929078014,52.3768026,4.9378239
304,1019 PG Netherlands,27500.0,12.0,,335056.2705882353,52.3774484,4.9351299
305,1019 PM Netherlands,350000.0,62.0,104.5,377874.30476190476,52.3780412,4.9326859
306,1019 RM Netherlands,460000.0,94.0,,319854.76923076925,52.3795462,4.924445899999999
307,1019 TB Netherlands,650000.0,132.0,,267183.0896551724,52.37438390000001,4.947129299999999
308,1019 TK Netherlands,525000.0,122.0,,306360.39688715956,52.3734304,4.9444956
309,1019 VE Netherlands,975000.0,154.0,,33397888.0,52.3692187,4.9524754
310,1019 XE Netherlands,820000.0,141.0,,305932.5105485232,52.3709388,4.9439771
311,1021 NE Netherlands,399000.0,96.0,,183451.375,52.3816994,4.9143773
312,1021 NW Netherlands,310000.0,75.0,,175500.0,52.3830059,4.9174625
313,1022 AD Netherlands,300000.0,43.0,,160247.0588235294,52.3883459,4.9269542
314,1022 BA Netherlands,399000.0,80.0,,381355.0,52.38913969999999,4.9230678
315,1022 KD Netherlands,550000.0,171.0,1058.4736842105262,5545390.071428572,52.3963521,4.923365599999999
316,1023 BL Netherlands,950000.0,190.0,162.45945945945945,356923.35135135136,52.3899444,4.943082
317,1023 CW Netherlands,300000.0,62.0,59.0,147250.0,52.3893418,4.947774100000001
318,1023 NH Netherlands,995000.0,148.0,217.16666666666666,660339.4285714285,52.3835493,4.9638414
319,1023 NV Netherlands,600000.0,120.0,215.2,291312.25,52.3845398,4.9643608
320,1023 NX Netherlands,927500.0,173.0,3441.0,443584.5714285714,52.3837153,4.9650149
321,1023 TX Netherlands,309000.0,65.0,40.8,193500.0,52.39002929999999,4.9489719
322,1023 VH Netherlands,250000.0,54.0,49.8,154932.4,52.3909013,4.9490367
323,1023 XB Netherlands,300000.0,75.0,96.42857142857143,190028.57142857142,52.3935042,4.940872
324,1023 XN Netherlands,200000.0,61.0,,162333.33333333334,52.3935521,4.9392849
325,1024 AE Netherlands,250000.0,100.0,,784286.0,52.39745689999999,4.9500151
326,1024 AH Netherlands,286000.0,102.0,,155814.10344827586,52.397599,4.9495435
327,1024 AT Netherlands,235000.0,84.0,,116226.91666666667,52.3991576,4.9505567
328,1024 AW Netherlands,125000.0,28.0,,165306.44444444444,52.399899,4.9517542
329,1024 BH Netherlands,210000.0,64.0,,141909.2,52.3927001,4.9493715
330,1024 BS Netherlands,25000.0,19.0,17.454545454545453,189724.0,52.3943003,4.9495027
331,1024 HL Netherlands,180000.0,40.0,,134666.66666666666,52.39587110000001,4.958772499999999
332,1024 HM Netherlands,175000.0,54.0,79.6,2708344.117647059,52.39601709999999,4.9593735
333,1024 LH Netherlands,275000.0,85.0,,148759.6,52.3918475,4.957063199999999
334,1024 LW Netherlands,450000.0,112.0,,8227596.140350877,52.3922777,4.9542678
335,1024 MA Netherlands,350000.0,100.0,137.6875,222013.0625,52.39129,4.9594779
336,1024 NB Netherlands,287500.0,90.5,467.0,24611652.681818184,52.3921596,4.953931
337,1024 NM Netherlands,499000.0,149.0,120.45454545454545,296853.0909090909,52.3905002,4.9548287
338,1024 PL Netherlands,265000.0,103.0,,177627.58620689655,52.3964444,4.9459994
339,1024 SB Netherlands,225000.0,64.0,,133723.07692307694,52.3945095,4.9477229
340,1024 SJ Netherlands,225000.0,77.0,,149593.75,52.3951485,4.9479663
341,1024 TJ Netherlands,240000.0,72.0,,155230.76923076922,52.3941133,4.9523987
342,1024 VW Netherlands,200000.0,66.0,,152187.5,52.3941826,4.9541463
343,1024 XR Netherlands,275000.0,81.0,137.0909090909091,876848.45,52.39587479999999,4.957318
344,1025 EE Netherlands,250000.0,88.0,,146429.17647058822,52.4044511,4.9384988
345,1025 GW Netherlands,199000.0,56.0,,157120.74074074073,52.3972668,4.9376459
346,1025 HV Netherlands,228000.0,95.0,,153726.57142857142,52.3962383,4.9389933
347,1025 JG Netherlands,250000.0,110.0,,139455.3,52.3979345,4.9359641
348,1025 JJ Netherlands,275000.0,92.0,,170576.7,52.39617570000001,4.931985699999999
349,1025 LW Netherlands,1200000.0,170.0,166.0,414951.8857142857,52.3913674,4.936721400000001
350,1025 NM Netherlands,349000.0,84.0,96.25,176625.0,52.393147,4.9297103
351,1025 PD Netherlands,195000.0,56.0,139.5,158212.45,52.392146,4.9311604
352,1025 RA Netherlands,245000.0,57.0,113.125,187425.0,52.39348709999999,4.927018299999999
353,1025 RK Netherlands,350000.0,88.0,100.0,187593.75,52.393484,4.926225
354,1025 SH Netherlands,259000.0,78.0,,153196.73333333334,52.3977467,4.929177999999999
355,1025 WJ Netherlands,795000.0,163.0,316.6666666666667,538081.0,52.3976262,4.9236401
356,1025 WV Netherlands,200000.0,49.0,,153037.2093023256,52.397439,4.9427865
357,1025 XZ Netherlands,250000.0,87.0,,561346.125,52.4031373,4.9452275
358,1025 ZC Netherlands,450000.0,140.0,88.91666666666667,218082.41666666666,52.4032631,4.9428163
359,1025 ZL Netherlands,200000.0,78.0,,168505.7142857143,52.4043495,4.9401456
360,1025 ZW Netherlands,129500.0,33.0,,170188.2068965517,52.4046793,4.9417881
361,1025 ZX Netherlands,225000.0,80.0,,90980.7,52.4047121,4.9409649
362,1026 BZ Netherlands,1195000.0,158.0,277.3333333333333,795833.3333333334,52.3754633,4.9853151
363,1026 CG Netherlands,700000.0,103.0,6949.533333333334,335663.73333333334,52.3763703,5.0068359
364,1026 CH Netherlands,630000.0,98.5,299.72222222222223,480555.55555555556,52.3776824,4.990376299999999
365,1027 AM Netherlands,775000.0,135.0,171.66666666666666,461333.3333333333,52.4076069,4.965713099999999
366,1028 AZ Netherlands,1500000.0,374.0,111150.0,1335125.0,52.4071101,4.993742699999999
367,1028 BD Netherlands,395000.0,100.0,585.0,453000.0,52.4135932,5.0228164
368,1028 BM Netherlands,775000.0,124.0,278.4,478200.0,52.3945562,4.9942655
369,1031 KB Netherlands,712500.0,123.0,1966.0,1849328.9538461538,52.38681570000001,4.9016166
370,1031 KC Netherlands,845000.0,111.0,,20134330.11795544,52.3862884,4.9001388
371,1031 KG Netherlands,911000.0,113.0,,8963242.627737226,52.3903988,4.9020632
372,1031 XK Netherlands,225000.0,51.0,100.0,194603.0303030303,52.3914784,4.909998
373,1032 AG Netherlands,265000.0,61.0,,222099.0,52.3955366,4.9179321
374,1032 AR Netherlands,269000.0,68.0,,167922.58333333334,52.3963695,4.917174
375,1032 AS Netherlands,275000.0,61.0,,175264.11764705883,52.3971144,4.9169016
376,1032 BG Netherlands,250000.0,60.0,,154857.14285714287,52.3973527,4.9158118
377,1032 HA Netherlands,375000.0,85.0,,173572.6896551724,52.3971513,4.914888299999999
378,1032 HB Netherlands,350000.0,100.0,,243354.0,52.3979382,4.9161434
379,1032 KE Netherlands,1230833.3333333333,248.0,554.7777777777778,656971.3333333334,52.39533160000001,4.9093689
380,1032 KK Netherlands,699005.5,145.5,3357.5454545454545,2189014.9655172415,52.3982458,4.907691799999999
381,1032 LH Netherlands,320000.0,74.0,128.0,557666.6666666666,52.3971648,4.907835299999999
382,1033 AB Netherlands,495000.0,113.0,237.8235294117647,236962.35294117648,52.4156614,4.8918051
383,1033 AG Netherlands,115000.0,35.0,18.470588235294116,13692.411764705883,52.4185931,4.879468699999999
384,1033 BC Netherlands,750000.0,199.0,197.0,232500.0,52.4151003,4.8908854
385,1033 CN Netherlands,225000.0,65.0,88.11111111111111,199046.55555555556,52.41484819999999,4.890770600000001
386,1033 DS Netherlands,225000.0,62.0,,155793.33333333334,52.406057,4.8947634
387,1033 HA Netherlands,298000.0,77.0,118.2,153996.0,52.413846,4.8833005
388,1033 KL Netherlands,275000.0,78.0,103.0,176300.0,52.4103977,4.8990361
389,1033 LG Netherlands,175000.0,40.0,,127418.18181818182,52.4094232,4.8980916
390,1033 MA Netherlands,199000.0,61.0,,130382.14285714286,52.4081864,4.892447199999999
391,1033 PW Netherlands,325000.0,91.0,136.4,181840.0,52.407945,4.897079199999999
392,1033 SX Netherlands,425000.0,125.0,60.42857142857143,353657.14285714284,52.4097745,4.8939432
393,1033 VK Netherlands,325000.0,82.0,137.42857142857142,200295.0,52.4140414,4.884871
394,1033 WR Netherlands,300000.0,115.0,125.5,216896.83333333334,52.4010445,4.895406899999999
395,1033 XM Netherlands,347500.0,93.0,,218037.0,52.4161909,4.8767917
396,1033 XW Netherlands,375000.0,111.0,72.5,136202.83333333334,52.41829079999999,4.8781345
397,1033 ZA Netherlands,209011.0,59.0,,154389.87096774194,52.4173063,4.885422
398,1034 BM Netherlands,29500.0,18.0,,21101.0,52.4076495,4.9172724
399,1034 BV Netherlands,225000.0,74.0,,115390.75757575757,52.4058613,4.9106367
400,1034 CB Netherlands,225000.0,74.0,,157042.5625,52.4073728,4.911031899999999
401,1034 CR Netherlands,162000.0,31.0,,207481.17647058822,52.4078001,4.9167735
402,1034 EX Netherlands,194000.0,58.0,,152466.8,52.4060167,4.9180562
403,1034 KE Netherlands,450000.0,131.0,117.5,10214850.0,52.4054723,4.914491
404,1034 KT Netherlands,395000.0,113.0,129.0,249657.875,52.4081832,4.9250434
405,1034 KZ Netherlands,375000.0,113.0,154.25,247736.4375,52.4089357,4.9244036
406,1034 MB Netherlands,235000.0,74.0,,153898.5294117647,52.4089853,4.9233008
407,1034 MJ Netherlands,229000.0,75.0,,141762.5,52.41016,4.9226125
408,1034 MK Netherlands,299000.0,110.0,,174492.23076923078,52.410458,4.9229914
409,1034 MV Netherlands,219000.0,71.0,,139254.16666666666,52.41062420000001,4.924106699999999
410,1034 TV Netherlands,240000.0,62.0,,155447.6923076923,52.4137341,4.9195913
411,1034 WR Netherlands,350000.0,136.0,199.3181818181818,239180.26315789475,52.4019681,4.9192893
412,1034 WX Netherlands,540000.0,159.0,132.0,264042.6153846154,52.4026878,4.9194434
413,1034 XD Netherlands,598011.0,131.0,160.62962962962962,323130.7037037037,52.4017357,4.9083594
414,1034 XE Netherlands,529500.0,105.0,177.45833333333334,381180.8333333333,52.402963,4.905157399999999
415,1034 ZH Netherlands,798000.0,134.0,164.94117647058823,343224.8823529412,52.4008793,4.9166853
416,1034 ZM Netherlands,400000.0,118.0,137.5,334250.0,52.4008625,4.9124684
417,1035 AV Netherlands,10000.0,18.0,1080.0,5237841.945945946,52.4197261,4.8880553
418,1035 CR Netherlands,200000.0,96.0,,163001.53846153847,52.41724319999999,4.8917875
419,1035 CT Netherlands,200000.0,95.0,,158980.0,52.417223,4.8912732
420,1035 HE Netherlands,225000.0,80.0,99.0,186861.25,52.4168952,4.9067666
421,1035 HL Netherlands,250000.0,102.0,103.5,185093.8947368421,52.4233607,4.8867794
422,1035 HM Netherlands,275000.0,95.0,114.6923076923077,208492.53846153847,52.4223745,4.8852323
423,1035 HP Netherlands,325000.0,113.0,85.42857142857143,199828.85714285713,52.422303,4.885336
424,1035 JZ Netherlands,349511.0,92.0,82.25,378486.72222222225,52.4241052,4.8950185
425,1035 NL Netherlands,675000.0,113.0,389.3333333333333,311775.44444444444,52.4190665,4.9067903
426,1035 NN Netherlands,525000.0,108.0,250.1818181818182,300311.86363636365,52.4166278,4.9060377
427,1035 NV Netherlands,210000.0,85.0,266.85714285714283,295748.21428571426,52.4180279,4.8967912
428,1035 PJ Netherlands,898000.0,275.0,459.29411764705884,376308.9411764706,52.4170539,4.8959788
429,1035 PS Netherlands,425000.0,85.0,269.87692307692305,392259.3230769231,52.4148585,4.8997366
430,1035 PW Netherlands,975000.0,238.0,145.55555555555554,957322.925925926,52.41488469999999,4.899559900000001
431,1035 RT Netherlands,375000.0,133.0,172.02777777777777,109940.44444444444,52.4168952,4.9067666
432,1035 TL Netherlands,290000.0,98.0,88.0,167850.0,52.4219473,4.9013491
433,1035 TS Netherlands,587500.0,120.0,379.3333333333333,306882.6666666667,52.41633359999999,4.9000143
434,1035 XJ Netherlands,425000.0,91.0,189.42857142857142,146236.2857142857,52.4194103,4.9029205
435,1036 KM Netherlands,418800.0,120.0,125.33333333333333,361416.6666666667,52.4101425,4.9025368
436,1051 AL Netherlands,365000.0,75.0,,290728.1538461539,52.3826265,4.875768
437,1051 BM Netherlands,265000.0,45.0,85.0,217421.41772151898,52.3830586,4.8738389
438,1051 BR Netherlands,275000.0,39.0,,202650.85714285713,52.3838655,4.8754747
439,1051 BV Netherlands,225000.0,39.0,84.0,505881.3968253968,52.3830743,4.8733247
440,1051 BZ Netherlands,275000.0,40.0,119.0,2341975.0,52.38274510000001,4.872036
441,1051 CN Netherlands,265000.0,36.0,89.07692307692308,947874.5483870967,52.3818697,4.8691527
442,1051 DC Netherlands,360000.0,76.0,,335991.7619047619,52.3789812,4.8704054
443,1051 EB Netherlands,275000.0,48.0,,123566.46153846153,52.3823774,4.8722165
444,1051 EN Netherlands,225000.0,38.0,75.0,798718.3518518518,52.3833391,4.87222
445,1051 ES Netherlands,249000.0,45.0,,284154.0,52.3850788,4.873389599999999
446,1051 EX Netherlands,280000.0,48.0,83.36363636363636,196674.05555555556,52.3848716,4.8732745
447,1051 GA Netherlands,325000.0,65.0,79.33333333333333,348187.63157894736,52.3834189,4.874025700000001
448,1051 GL Netherlands,382000.0,63.0,84.8,215754.87719298244,52.3836154,4.8737444
449,1051 JJ Netherlands,235000.0,40.0,69.16666666666667,210623.76666666666,52.3798217,4.869411500000001
450,1051 JN Netherlands,575000.0,121.0,99.0,192963.6875,52.3797728,4.8686235
451,1051 JW Netherlands,375000.0,68.0,285.3,279554.83636363636,52.3789058,4.869598499999999
452,1051 KA Netherlands,550000.0,82.0,87.14285714285714,275584.2794117647,52.3809154,4.8687673
453,1051 KH Netherlands,650000.0,109.0,288.0,1821133.6666666667,52.3769392,4.8700033
454,1051 KR Netherlands,495000.0,105.0,,199076.92307692306,52.3854418,4.8762644
455,1051 KX Netherlands,300000.0,51.0,98.0,796979.0638297872,52.3853741,4.8730924
456,1051 MC Netherlands,525000.0,96.0,,217420.72307692308,52.3780507,4.8713709
457,1051 MG Netherlands,520000.0,86.0,,262720.7,52.3773341,4.8698666
458,1051 MK Netherlands,399000.0,80.0,,529780.9722222222,52.3745675,4.8661394
459,1051 NV Netherlands,445000.0,91.0,,230626.9756097561,52.3853101,4.868701199999999
460,1051 NW Netherlands,389000.0,74.0,,247237.5918367347,52.38527740000001,4.867408999999999
461,1051 NZ Netherlands,450000.0,101.0,,197134.85714285713,52.3842715,4.867567699999999
462,1051 RL Netherlands,525000.0,80.0,,338746.0344827586,52.3792068,4.872679199999999
463,1052 AA Netherlands,215000.0,31.0,,196626.84905660377,52.3848383,4.8801344
464,1052 BV Netherlands,425000.0,68.0,120.0,349500.0,52.3808869,4.876698699999999
465,1052 CK Netherlands,699000.0,130.0,145.75,427844.5882352941,52.3826625,4.879953599999999
466,1052 EG Netherlands,864500.0,122.5,126.0,334387.3333333333,52.3723906,4.8739477
467,1052 EJ Netherlands,595000.0,90.0,,439861.1111111111,52.3720406,4.8740546
468,1052 GG Netherlands,275000.0,44.0,115.0,317682.52,52.3802641,4.876088999999999
469,1052 GN Netherlands,345000.0,64.0,121.05555555555556,979958.0465116279,52.3793777,4.8747774
470,1052 HJ Netherlands,495000.0,80.0,152.0,330464.28571428574,52.37682359999999,4.8744103
471,1052 HM Netherlands,375000.0,56.0,119.0,311567.6,52.37502079999999,4.8732124
472,1052 JC Netherlands,299500.0,49.0,158.66666666666666,357038.46153846156,52.3750369,4.872771699999999
473,1052 JH Netherlands,475000.0,92.0,,325461.78571428574,52.3733695,4.8717043
474,1052 JL Netherlands,795000.0,141.0,,323219.6111111111,52.3773668,4.8753294
475,1052 JN Netherlands,695000.0,113.5,85.0,158442.61538461538,52.3771709,4.8757428
476,1052 JW Netherlands,575000.0,99.0,124.2,421139.36,52.3747649,4.8743021
477,1052 KA Netherlands,550000.0,92.0,141.0,330652.73913043475,52.37699,4.875480599999999
478,1052 KC Netherlands,406666.6666666667,72.66666666666667,768.0,422176.429567643,52.37552119999999,4.8746164
479,1052 LP Netherlands,295000.0,51.0,94.0,219139.57142857142,52.3734087,4.8745086
480,1052 LW Netherlands,375000.0,73.0,,313368.48148148146,52.3726739,4.8708754
481,1052 LX Netherlands,325000.0,54.0,,234985.7142857143,52.3724899,4.8699084
482,1052 ND Netherlands,400000.0,68.0,135.0,224650.5,52.3715413,4.872915
483,1052 SJ Netherlands,275000.0,53.0,,391527.86842105264,52.3719967,4.872234199999999
484,1052 SP Netherlands,185000.0,31.0,,175373.0,52.3738773,4.8706558
485,1052 SV Netherlands,225000.0,44.0,,158421.875,52.37319189999999,4.8701351
486,1052 TV Netherlands,250000.0,50.0,,154666.66666666666,52.37804939999999,4.8731479
487,1052 TX Netherlands,250000.0,45.0,,181032.9375,52.3775357,4.8728161
488,1053 AX Netherlands,375000.0,55.0,98.75,449166.6666666667,52.36694199999999,4.863219099999999
489,1053 BX Netherlands,250000.0,45.0,75.0,261188.4935064935,52.3670481,4.8668885
490,1053 CG Netherlands,300000.0,54.0,93.27272727272727,1279985.5182481753,52.36650969999999,4.8670857
491,1053 CL Netherlands,325000.0,58.0,97.66666666666667,247527.53333333333,52.3662834,4.8667213
492,1053 DH Netherlands,262500.0,45.5,,171764.70588235295,52.3663937,4.8695863
493,1053 ED Netherlands,225000.0,27.0,523.0,1737427.027027027,52.36671219999999,4.8702252
494,1053 GA Netherlands,585000.0,80.0,,492968.8888888889,52.3654318,4.865204299999999
495,1053 GB Netherlands,315000.0,45.0,92.66666666666667,595807.3582089553,52.3652579,4.8644869
496,1053 GD Netherlands,247500.0,34.5,,213030.8875,52.36491909999999,4.8630815
497,1053 GT Netherlands,285000.0,47.0,,219667.39130434784,52.363402,4.8634811
498,1053 HA Netherlands,900000.0,131.0,123.71428571428571,696465.3170731707,52.3670619,4.8762558
499,1053 KM Netherlands,350000.0,67.0,455.6666666666667,779117.2444444444,52.3695455,4.870720899999999
500,1053 KR Netherlands,350000.0,62.0,,234127.32142857142,52.3669376,4.872469199999999
501,1053 KS Netherlands,525000.0,70.0,169.0,190077.6923076923,52.366409,4.8728424
502,1053 KV Netherlands,450000.0,78.0,,306445.45454545453,52.3705505,4.8703568
503,1053 LM Netherlands,500000.0,82.5,189.8,504459.2156862745,52.3702011,4.874751300000001
504,1053 LN Netherlands,595000.0,95.0,145.4,362464.25,52.3696539,4.8750072
505,1053 ML Netherlands,450000.0,79.0,84.0,432318.33898305084,52.3658827,4.8737734
506,1053 NG Netherlands,350000.0,69.0,,258320.0,52.3631675,4.8633077
507,1053 NM Netherlands,567000.0,91.0,105.36363636363636,1006452.4285714285,52.3622883,4.859603799999999
508,1053 NZ Netherlands,250000.0,42.0,,156180.0,52.3631955,4.8615016
509,1053 RA Netherlands,360000.0,80.0,,250464.2857142857,52.3644087,4.8634986
510,1053 RG Netherlands,337500.0,62.5,166.0,207656.0,52.36374900000001,4.8606728
511,1053 SE Netherlands,245000.0,47.0,91.0,456963.4375,52.3639255,4.859922
512,1053 SW Netherlands,525000.0,83.0,,307486.0,52.3687243,4.865870399999999
513,1053 VL Netherlands,439000.0,62.0,,289888.31481481483,52.3664481,4.8715058
514,1053 WG Netherlands,1875000.0,321.0,140.45,956017.7142857143,52.371162,4.8725082
515,1053 WL Netherlands,650000.0,108.0,96.0,293787.0967741936,52.3708436,4.8716162
516,1053 XE Netherlands,475000.0,73.0,137.0,234763.01369863015,52.3673996,4.8733008
517,1053 ZS Netherlands,1100000.0,160.0,147.0,356528.0,52.3672642,4.8752404
518,1054 AA Netherlands,595000.0,88.0,122.0,381863.3333333333,52.3662585,4.8775277
519,1054 AD Netherlands,995000.0,146.0,901.3,12509074.074074075,52.3646723,4.878603099999999
520,1054 AH Netherlands,750000.0,120.0,698.0,1325796.875,52.3648663,4.8756498
521,1054 AJ Netherlands,398000.0,62.0,102.0,538425.2592592592,52.3652689,4.875234
522,1054 AP Netherlands,1100000.0,220.0,,456921.8181818182,52.3650592,4.8745464
523,1054 AZ Netherlands,875000.0,108.0,74.0,360805.1034482759,52.36546999999999,4.8780948
524,1054 BM Netherlands,1435000.0,194.5,86.5,413072.0,52.3641054,4.8742785
525,1054 CK Netherlands,425000.0,58.0,108.0,807438.4375,52.3646199,4.8768712
526,1054 DZ Netherlands,450000.0,64.0,151.0,313522.7272727273,52.3622374,4.8808918
527,1054 EB Netherlands,675000.0,144.0,185.0,590071.2972972973,52.3622374,4.8808918
528,1054 EJ Netherlands,950000.0,164.0,109.91666666666667,348844.3043478261,52.3622374,4.8808918
529,1054 ES Netherlands,1374500.0,183.0,970.2222222222222,3060781.808333333,52.3622374,4.8808918
530,1054 EV Netherlands,2240000.0,198.0,164.33333333333334,3445158.9411764704,52.3617232,4.878343099999999
531,1054 GC Netherlands,575000.0,85.0,,304510.53846153844,52.36266,4.8788317
532,1054 GE Netherlands,749000.0,119.0,209.4,5044659.083333333,52.3624027,4.877513299999999
533,1054 GG Netherlands,1295000.0,127.0,150.0,659091.6129032258,52.3620833,4.876386600000001
534,1054 GJ Netherlands,1280000.0,179.0,578.0,865959.724137931,52.36188420000001,4.8760805
535,1054 GK Netherlands,3400000.0,163.0,322.0,1154956.24,52.3614552,4.8745587
536,1054 GS Netherlands,3550000.0,395.0,252.5,836431.2222222222,52.3612586,4.8789798
537,1054 GT Netherlands,3000000.0,312.0,162.23529411764707,1459346.8823529412,52.3608963,4.8721135
538,1054 HP Netherlands,450000.0,73.0,83.0,576473.8181818182,52.362185,4.8728913
539,1054 HR Netherlands,1379000.0,167.0,163.85714285714286,648621.4146341464,52.3619014,4.871764199999999
540,1054 JC Netherlands,674500.0,96.0,186.66666666666666,3821476.714285714,52.3610236,4.8683244
541,1054 JE Netherlands,425000.0,67.0,188.51724137931035,1165915.283018868,52.3624027,4.877513299999999
542,1054 KJ Netherlands,469000.0,75.0,136.0,304556.5333333333,52.3589817,4.8598193
543,1054 LG Netherlands,460000.0,70.0,187.0,690720.7906976744,52.3581693,4.8570104
544,1054 LR Netherlands,550000.0,83.0,136.0,384374.8787878788,52.3574631,4.8578703
545,1054 MA Netherlands,795000.0,113.0,361.85714285714283,409672.86842105264,52.356779,4.8556472
546,1054 MJ Netherlands,275000.0,52.0,94.0,719426.2857142857,52.3621114,4.8643038
547,1054 ML Netherlands,750000.0,118.0,109.0,471131.25581395347,52.3611525,4.8649464
548,1054 MT Netherlands,349000.0,56.0,110.3157894736842,270039.73913043475,52.3620532,4.8674168
549,1054 SZ Netherlands,398000.0,59.0,183.33333333333334,7173670.875,52.3586535,4.8567551
550,1054 TL Netherlands,549000.0,85.0,147.125,421560.0,52.3599902,4.8582071
551,1054 TW Netherlands,415000.0,65.0,107.0,242723.4871794872,52.359512,4.8598276
552,1054 VA Netherlands,412000.0,64.5,,290034.51612903224,52.3594217,4.8597259
553,1054 VM Netherlands,429000.0,72.0,,196060.02790697676,52.3622014,4.8623061
554,1054 WG Netherlands,324500.0,54.0,100.0,387105.09523809527,52.3602688,4.8582185
555,1054 WJ Netherlands,799000.0,117.0,108.0,217250.34615384616,52.3622986,4.8660046
556,1054 WK Netherlands,437500.0,63.0,99.3076923076923,762446.4366197183,52.3620516,4.8650091
557,1054 WN Netherlands,750000.0,96.0,,4484658.536585365,52.361594,4.863150099999999
558,1054 XH Netherlands,700000.0,115.0,128.0,286259.25641025644,52.3630023,4.8665983
559,1054 XM Netherlands,875000.0,133.0,138.77777777777777,421790.61818181816,52.3618217,4.8617968
560,1054 ZH Netherlands,850000.0,134.0,120.0,461358.7586206897,52.3656071,4.8744667
561,1055 AA Netherlands,179800.0,34.8,,4318036.339031339,52.3766639,4.8446295
562,1055 AB Netherlands,450000.0,82.0,,301324.9555555555,52.3767899,4.8466252
563,1055 AK Netherlands,425000.0,94.0,,289525.5,52.376948,4.847798200000001
564,1055 AM Netherlands,347500.0,57.0,,320320.0,52.37623139999999,4.8483356
565,1055 AN Netherlands,325000.0,49.0,,217698.77777777778,52.3766438,4.8481103
566,1055 AP Netherlands,285000.0,51.0,,199833.1851851852,52.377137,4.8478546
567,1055 BD Netherlands,300000.0,56.0,,219585.4,52.3765182,4.8501384
568,1055 BX Netherlands,275000.0,57.0,,148015.85185185185,52.3768854,4.8518229
569,1055 CD Netherlands,272500.0,50.5,,183340.5,52.37694,4.8519691
570,1055 CE Netherlands,259000.0,59.0,,184219.69696969696,52.37726259999999,4.851774199999999
571,1055 EA Netherlands,575000.0,122.0,,16936275.225806452,52.3782511,4.8477823
572,1055 EK Netherlands,482000.0,126.0,,39423078.53608248,52.37851999999999,4.8456348
573,1055 EP Netherlands,269000.0,55.0,,1617578.2954545454,52.3788116,4.8484951
574,1055 GA Netherlands,309000.0,58.0,,186029.16666666666,52.3799686,4.8499351
575,1055 HN Netherlands,259000.0,50.0,,6525333.106382979,52.38081400000001,4.8480889
576,1055 HT Netherlands,250000.0,50.0,,7939026.042553191,52.38086269999999,4.8489108
577,1055 KB Netherlands,250000.0,56.0,101.0,427166.6666666667,52.3840338,4.846581
578,1055 KX Netherlands,365000.0,84.0,,162727.85714285713,52.3824495,4.8500078
579,1055 LW Netherlands,329000.0,70.0,,342525.0,52.3797801,4.855958999999999
580,1055 MA Netherlands,389000.0,75.0,212.22222222222223,562461.1685393258,52.3814485,4.8532218
581,1055 MJ Netherlands,200000.0,30.0,199.15384615384616,9463497.833333334,52.3841731,4.8475781
582,1055 NA Netherlands,325000.0,72.0,,367296.77419354836,52.3814048,4.8535014
583,1055 ND Netherlands,750000.0,140.0,260.25,524890.0,52.3828219,4.8508552
584,1055 NJ Netherlands,285000.0,61.0,,206040.27777777778,52.3835737,4.852138699999999
585,1055 NM Netherlands,292500.0,56.0,,244040.0,52.38462939999999,4.8490854
586,1055 NT Netherlands,375000.0,70.0,,183430.0,52.384621,4.8492324
587,1055 NV Netherlands,220000.0,52.0,,172181.81818181818,52.3840605,4.8504877
588,1055 NX Netherlands,305000.0,57.0,,214960.0909090909,52.3839801,4.8505915
589,1055 PK Netherlands,375000.0,80.0,,176264.25,52.3849823,4.8575859
590,1055 PR Netherlands,335000.0,76.0,,241250.0,52.3847849,4.8496858
591,1055 RB Netherlands,450000.0,78.0,,180745.64912280702,52.3822585,4.8574715
592,1055 RD Netherlands,212500.0,43.0,10015.368421052632,4365685.161290322,52.38254740000001,4.8577765
593,1055 RZ Netherlands,461250.0,90.75,2972.0,338822.75,52.3841176,4.8571702
594,1055 SC Netherlands,439000.0,103.0,,307577.22580645164,52.3763845,4.8464246
595,1055 SN Netherlands,300000.0,57.0,,4214364.782608695,52.3770602,4.8547139
596,1055 SV Netherlands,295000.0,53.0,,296500.0,52.3770985,4.8552421
597,1055 TM Netherlands,350000.0,60.0,113.0,208437.2,52.3791505,4.8578611
598,1055 TT Netherlands,185000.0,37.0,8502.0,2794999.714285714,52.3806709,4.856198
599,1055 VE Netherlands,325000.0,56.0,99.0,245245.0,52.3794771,4.858547499999999
600,1055 WN Netherlands,250000.0,48.0,,176314.47619047618,52.3807379,4.8591052
601,1055 XP Netherlands,375000.0,68.0,469.6,187928.80701754385,52.3816987,4.854893199999999
602,1055 XR Netherlands,265000.0,52.0,125.0,224079.44444444444,52.3820079,4.8537145
603,1055 XS Netherlands,275000.0,52.0,,188181.77142857143,52.3825251,4.8527976
604,1055 ZT Netherlands,265000.0,50.0,634.0,246350.06666666668,52.3839891,4.8545866
605,1056 CN Netherlands,250000.0,56.0,,197547.0243902439,52.370827,4.8496934
606,1056 DA Netherlands,350000.0,58.0,,287781.9069767442,52.3703624,4.850315699999999
607,1056 DG Netherlands,260000.0,52.0,,180870.0,52.3736888,4.848528
608,1056 DR Netherlands,250000.0,43.0,135.0,169777.9,52.3720466,4.8550677
609,1056 EH Netherlands,499000.0,92.0,115.33333333333333,337344.8275862069,52.3705548,4.8531034
610,1056 EL Netherlands,275000.0,50.0,,205750.0,52.3699153,4.8488381
611,1056 EM Netherlands,500000.0,104.0,,3922068.222222222,52.3749161,4.8576032
612,1056 EN Netherlands,599000.0,135.0,2824.0,8254360.027027027,52.3752751,4.8574961
613,1056 EP Netherlands,345000.0,77.0,2824.0,10431738.71942446,52.3757057,4.8573001
614,1056 ET Netherlands,585000.0,130.0,143.63636363636363,408817.96153846156,52.3717248,4.8594769
615,1056 EW Netherlands,369000.0,78.0,203.33333333333334,292935.8333333333,52.37288239999999,4.859066599999999
616,1056 JH Netherlands,250000.0,51.0,167.75,7002302.666666667,52.3731523,4.8631605
617,1056 KB Netherlands,300000.0,49.0,,211383.53191489363,52.372772,4.8645599
618,1056 KM Netherlands,349000.0,55.0,139.0,209572.88235294117,52.37330559999999,4.8653172
619,1056 KN Netherlands,325000.0,54.0,,218036.5,52.3737514,4.8645043
620,1056 KT Netherlands,225000.0,40.0,,137882.35294117648,52.37086799999999,4.864876
621,1056 KW Netherlands,150000.0,23.0,,133747.61904761905,52.3711296,4.8650932
622,1056 KZ Netherlands,136000.0,21.0,,140950.0,52.3713098,4.8652086
623,1056 LD Netherlands,321500.0,66.08733333333333,,336694.93617021275,52.3763918,4.855970200000001
624,1056 NP Netherlands,275000.0,50.0,,164646.55555555556,52.3702398,4.8490397
625,1056 PJ Netherlands,485000.0,74.0,,357492.85714285716,52.37141519999999,4.848599600000001
626,1056 PN Netherlands,359666.6666666667,74.66666666666667,136.0,214515.55555555556,52.372841,4.8478775
627,1056 PS Netherlands,175000.0,29.0,140.0,4390531.609756097,52.37409599999999,4.847172
628,1056 PX Netherlands,300000.0,55.5,,186969.23076923078,52.3713434,4.8506122
629,1056 SW Netherlands,279000.0,50.0,190.0,148327.85714285713,52.3711174,4.854286
630,1056 TZ Netherlands,525000.0,80.0,,259630.2,52.37356579999999,4.8571348
631,1056 VS Netherlands,550000.0,82.0,,308414.1935483871,52.372317,4.861276
632,1056 WD Netherlands,350000.0,67.0,221.0,719500.0,52.3724739,4.8621992
633,1056 WP Netherlands,467500.0,88.5,150.0,222988.375,52.3733097,4.8621893
634,1056 WZ Netherlands,649000.0,115.0,,208770.2,52.3754837,4.859916699999999
635,1056 XB Netherlands,350000.0,61.0,,215406.57894736843,52.3756869,4.8611626
636,1056 XM Netherlands,250000.0,49.0,,187916.66666666666,52.3762753,4.860083599999999
637,1056 XP Netherlands,490000.0,82.0,,285730.75,52.3772731,4.8621424
638,1056 XX Netherlands,295000.0,52.0,123.0,4001327.411764706,52.37327920000001,4.8544858
639,1057 AD Netherlands,325000.0,55.0,,200968.97777777776,52.36654129999999,4.8500096
640,1057 BB Netherlands,400000.0,70.0,140.0,227310.24,52.3654149,4.8513446
641,1057 BV Netherlands,275000.0,53.0,,139922.33333333334,52.3702064,4.8515804
642,1057 BW Netherlands,299000.0,60.0,73.0,207486.13333333333,52.3697287,4.8492956
643,1057 CD Netherlands,525000.0,108.0,,208034.375,52.3695254,4.8540408
644,1057 CH Netherlands,485000.0,99.0,120.0,243737.57142857142,52.3692848,4.8524872
645,1057 CN Netherlands,275000.0,52.0,84.0,242385.7142857143,52.3640821,4.8527555
646,1057 CZ Netherlands,285000.0,57.0,58.285714285714285,397648.0,52.36864320000001,4.8517315
647,1057 DB Netherlands,445000.0,75.0,132.0,255038.6590909091,52.3647673,4.853246400000001
648,1057 DG Netherlands,300000.0,58.0,96.15789473684211,541520.1153846154,52.3671279,4.8525279
649,1057 GG Netherlands,300000.0,57.0,,25405741.666666668,52.3694242,4.857521999999999
650,1057 HA Netherlands,400000.0,82.0,,214832.26315789475,52.3669582,4.8607963
651,1057 HC Netherlands,700000.0,170.0,,256670.18181818182,52.3677935,4.860668899999999
652,1057 HM Netherlands,537000.0,112.5,176.4,227930.18055555556,52.36826199999999,4.8629539
653,1057 HV Netherlands,390000.0,85.0,,221400.0,52.36738500000001,4.8617897
654,1057 JA Netherlands,387500.0,83.5,292.0,839134.375,52.3696391,4.8613665
655,1057 JD Netherlands,275000.0,46.0,,1686659.375,52.3674666,4.8619355
656,1057 NE Netherlands,500000.0,101.0,,186449.34210526315,52.368935,4.862711
657,1057 VP Netherlands,346250.0,68.0,276.0,1413028.3333333333,52.36813919999999,4.8555698
658,1057 WV Netherlands,625000.0,100.0,135.5,7044313.5625,52.3678821,4.8563657
659,1057 XR Netherlands,690000.0,148.0,197.0,795229.0,52.3700693,4.8590707
660,1057 ZN Netherlands,425000.0,78.0,131.0,1056806.0689655172,52.36930419999999,4.8588302
661,1057 ZR Netherlands,259000.0,48.0,21.285714285714285,320034.4375,52.3700315,4.85866
662,1058 AJ Netherlands,359500.0,57.0,,226553.1724137931,52.3626279,4.857177399999999
663,1058 AK Netherlands,367000.0,67.5,189.0,9524890.016129032,52.363526,4.8570198
664,1058 AT Netherlands,525000.0,95.0,,421929.26829268294,52.35994909999999,4.855066
665,1058 BC Netherlands,750000.0,144.0,164.88888888888889,745075.4615384615,52.3566914,4.844257199999999
666,1058 CB Netherlands,325000.0,58.0,,198323.5294117647,52.36201149999999,4.8520023
667,1058 CP Netherlands,475000.0,103.0,,237571.42857142858,52.3599676,4.8512049
668,1058 EB Netherlands,365000.0,98.0,,229875.0,52.3605243,4.8431973
669,1058 EM Netherlands,420000.0,100.0,,259400.68181818182,52.36313149999999,4.8433562
670,1058 ER Netherlands,380000.0,99.0,,232492.1875,52.3637461,4.844112099999999
671,1058 ET Netherlands,275000.0,59.0,,247310.52631578947,52.36411469999999,4.844137
672,1058 GD Netherlands,775000.0,128.0,,4481897.192771085,52.3571584,4.8461304
673,1058 GX Netherlands,314000.0,60.0,,267795.8333333333,52.3592923,4.8509341
674,1058 HE Netherlands,1562500.0,223.5,430.1666666666667,314470.0565217391,52.35638369999999,4.8536702
675,1058 JD Netherlands,395000.0,68.0,121.35,569643.6666666666,52.35537919999999,4.8521557
676,1058 JR Netherlands,400000.0,69.0,106.0,13421305.942222223,52.3558388,4.8504327
677,1058 KA Netherlands,470000.0,69.0,119.0,508022.7272727273,52.3569164,4.8502436
678,1058 KH Netherlands,300000.0,55.0,1304.0,6788613.4927007295,52.3531419,4.8503039
679,1058 LA Netherlands,550000.0,114.0,122.0,308505.14285714284,52.3537039,4.8493724
680,1058 LK Netherlands,350000.0,65.0,109.5,328195.75,52.3528105,4.846609099999999
681,1058 NE Netherlands,350000.0,58.0,138.5,979042.9818181818,52.353677,4.8513689
682,1058 NM Netherlands,329000.0,56.0,,364942.36666666664,52.35163319999999,4.8486197
683,1058 SP Netherlands,439000.0,75.0,,446106.0,52.3542838,4.8464737
684,1058 VD Netherlands,100000.0,30.0,150.0,966666.0,52.3600478,4.853039
685,1058 VV Netherlands,435000.0,69.0,126.66666666666667,490763.8823529412,52.3627836,4.853813499999999
686,1058 XA Netherlands,425000.0,100.0,258.0,446835.67741935485,52.3609571,4.8553769
687,1058 XJ Netherlands,325000.0,55.0,,1026770.1052631579,52.3607074,4.8558056
688,1058 XV Netherlands,465000.0,86.0,89.0,678387.7567567568,52.3631445,4.8561141
689,1058 XX Netherlands,300000.0,54.0,,196971.48571428572,52.3627319,4.856309899999999
690,1059 AB Netherlands,325000.0,59.0,132.0,546861.64,52.34988449999999,4.8494627
691,1059 AH Netherlands,295000.0,59.0,,226182.3260869565,52.3474113,4.8471445
692,1059 AN Netherlands,335000.0,62.0,,1942324.2352941176,52.3481147,4.847678900000001
693,1059 AV Netherlands,425000.0,80.0,204.85714285714286,491735.29411764705,52.3482456,4.8507741
694,1059 BG Netherlands,300000.0,58.0,,381833.3333333333,52.3473824,4.8487005
695,1059 BJ Netherlands,400000.0,60.0,,228824.6862745098,52.3484517,4.8486582
696,1059 BV Netherlands,630000.0,141.0,115.42105263157895,265017.6842105263,52.34627099999999,4.8474078
697,1059 EB Netherlands,647500.0,113.0,159.2941176470588,314181.0869565217,52.3500562,4.8516622
698,1059 EJ Netherlands,599000.0,108.0,132.0,320587.1707317073,52.3501675,4.8504426
699,1059 EL Netherlands,500000.0,84.0,,239162.10714285713,52.3486574,4.8504022
700,1059 EN Netherlands,575000.0,119.0,,273522.8181818182,52.3483697,4.8503763
701,1059 ST Netherlands,649000.0,115.0,143.0,491427.0,52.3502449,4.8476824
702,1059 SW Netherlands,300000.0,50.0,120.0,516050.30303030304,52.3513137,4.8475226
703,1059 SZ Netherlands,325000.0,52.0,115.0,264720.14285714284,52.35014529999999,4.847536799999999
704,1059 VL Netherlands,500000.0,106.0,,147104.03125,52.3485654,4.844018999999999
705,1059 VR Netherlands,500000.0,77.0,89.0,343129.81481481483,52.3485654,4.844018999999999
706,1059 WB Netherlands,595000.0,123.0,,253650.54761904763,52.3506174,4.844625
707,1059 XH Netherlands,300000.0,52.0,120.0,345582.46153846156,52.35078,4.8467806
708,1059 XN Netherlands,350000.0,59.0,,307982.275,52.3510607,4.8472322
709,1059 XP Netherlands,295000.0,51.0,,259715.5172413793,52.3510573,4.846483699999999
710,1059 XS Netherlands,340000.0,56.0,128.0,228226.8085106383,52.350932,4.8485694
711,1059 XZ Netherlands,325000.0,66.0,103.66666666666667,199181.6923076923,52.3498888,4.848449899999999
712,1060 MT Netherlands,350000.0,123.0,99.66666666666667,229081.45454545456,52.3461836,4.7917144
713,1060 MX Netherlands,350000.0,120.0,96.0,181646.57142857142,52.3458728,4.7924671
714,1060 NM Netherlands,495000.0,169.0,148.41666666666666,364846.7916666667,52.352467,4.7708169
715,1060 NV Netherlands,354500.0,122.5,136.08333333333334,305163.0833333333,52.351845,4.773922499999999
716,1060 NZ Netherlands,319500.0,90.0,125.0,263282.1111111111,52.3509994,4.7720408
717,1060 PD Netherlands,325000.0,84.0,111.16666666666667,251166.66666666666,52.3499175,4.7748738
718,1060 PH Netherlands,399000.0,124.0,123.08333333333333,294854.5,52.3514636,4.776643099999999
719,1060 PJ Netherlands,320000.0,83.0,,178224.95652173914,52.35118809999999,4.7807566
720,1060 PL Netherlands,375000.0,111.0,106.34883720930233,273481.9767441861,52.3492295,4.7809008
721,1060 PW Netherlands,600000.0,187.0,231.08,393802.12,52.3481629,4.7797119
722,1060 RC Netherlands,491500.0,163.33333333333334,118.46666666666667,351894.26666666666,52.34779229999999,4.779306
723,1060 RD Netherlands,420000.0,138.0,131.65217391304347,361044.4347826087,52.347734,4.7819632
724,1060 RE Netherlands,235000.0,65.0,,191096.66666666666,52.350531,4.782306699999999
725,1060 RG Netherlands,261333.33333333334,83.66666666666667,,169455.0956521739,52.3498652,4.7839449
726,1060 RN Netherlands,295000.0,90.0,,191776.0990990991,52.3496202,4.7870157
727,1060 RW Netherlands,475000.0,162.0,180.66666666666666,328086.55555555556,52.34849329999999,4.7898929
728,1060 RX Netherlands,371666.6666666667,138.33333333333334,99.51282051282051,309959.5128205128,52.3481999,4.7887374
729,1060 RZ Netherlands,442500.0,156.5,98.26666666666667,332905.56666666665,52.3481883,4.7864627
730,1060 SH Netherlands,235000.0,63.0,136.25,206146.75,52.34656589999999,4.7837843
731,1060 SM Netherlands,439000.0,139.0,139.42105263157896,328474.4736842105,52.3469294,4.7881088
732,1060 TA Netherlands,402000.0,137.0,90.33333333333333,218375.47826086957,52.34704430000001,4.788287599999999
733,1060 TR Netherlands,622500.0,200.5,127.71428571428571,458499.28571428574,52.3429761,4.7919336
734,1060 TW Netherlands,285000.0,99.0,,215897.48214285713,52.34997689999999,4.7882291
735,1061 AC Netherlands,245000.0,72.0,,153500.0,52.3652933,4.8366053
736,1061 BK Netherlands,365000.0,83.0,,242693.03125,52.3771648,4.8382496
737,1061 BM Netherlands,500000.0,131.0,,301845.90625,52.3730438,4.8375679
738,1061 CC Netherlands,273125.0,58.25,,229525.5,52.3767591,4.8399288
739,1061 DJ Netherlands,370000.0,97.0,,255547.4126984127,52.378663,4.8401876
740,1061 GL Netherlands,225000.0,80.0,,202234.14285714287,52.3810479,4.844194
741,1061 GM Netherlands,225000.0,79.0,,135045.36363636365,52.38146099999999,4.844130199999999
742,1061 SE Netherlands,360000.0,96.0,,256891.80952380953,52.36711099999999,4.837082
743,1061 VR Netherlands,249000.0,69.0,143.0,188095.64285714287,52.3656432,4.8403449
744,1061 XZ Netherlands,369500.0,91.5,,225982.11392405065,52.36975959999999,4.8364765
745,1062 DK Netherlands,267000.0,85.0,,152502.03260869565,52.3593266,4.834917799999999
746,1062 DM Netherlands,392995.0,100.33333333333333,,128185.69230769231,52.360302,4.8359479
747,1062 GD Netherlands,250000.0,81.0,,712736.6923076923,52.35115099999999,4.8356213
748,1062 JN Netherlands,249500.0,81.5,,1558892.794117647,52.3638743,4.8387665
749,1062 KJ Netherlands,310000.0,77.0,,151254.04545454544,52.3530326,4.8363171
750,1062 KZ Netherlands,450000.0,101.0,,212679.14102564103,52.3534595,4.8392181
751,1062 LB Netherlands,303750.0,90.5,,191907.85507246378,52.3549362,4.8378494
752,1063 AE Netherlands,165000.0,47.0,,125062.5,52.38389429999999,4.8377551
753,1063 AG Netherlands,145000.0,30.0,,112857.14285714286,52.38393929999999,4.8377839
754,1063 CZ Netherlands,175000.0,54.0,,130221.19047619047,52.3833188,4.8338405
755,1063 EH Netherlands,425000.0,125.0,93.73333333333333,214611.13333333333,52.3837572,4.8314849
756,1063 GC Netherlands,275000.0,85.0,95.0,181571.75,52.3826802,4.826108
757,1063 GT Netherlands,225000.0,61.0,,522361.875,52.3838503,4.8207907
758,1063 KZ Netherlands,265000.0,78.0,95.85714285714286,173600.0,52.3815598,4.8173244
759,1064 CR Netherlands,175000.0,45.0,,236500.0,52.3724385,4.830819
760,1064 DB Netherlands,359500.0,111.0,117.0,286437.5,52.3744801,4.82163
761,1064 DE Netherlands,399000.0,132.0,126.42857142857143,336928.5714285714,52.3741136,4.8201661
762,1064 EH Netherlands,275000.0,77.0,,205500.0,52.3737843,4.8284232
763,1064 HB Netherlands,389250.0,133.0,97.0,159025.05660377358,52.37761020000001,4.8202536
764,1064 JE Netherlands,239000.0,76.0,,143680.52380952382,52.3772169,4.8113736
765,1064 LT Netherlands,399000.0,90.0,174.6206896551724,225658.2068965517,52.3742202,4.8087692
766,1064 LV Netherlands,287500.0,73.0,72.75,158200.0,52.37315049999999,4.808739099999999
767,1064 ME Netherlands,225000.0,74.0,,134903.04347826086,52.3733893,4.819074
768,1064 NJ Netherlands,250000.0,60.0,69.83333333333333,166433.5,52.37291949999999,4.8111209
769,1064 NL Netherlands,375000.0,104.0,101.375,193087.625,52.3731735,4.8097667
770,1064 NP Netherlands,425000.0,103.0,76.42105263157895,188711.31578947368,52.372497,4.8111118
771,1064 NR Netherlands,420000.0,90.0,98.8125,201520.0625,52.37269490000001,4.809288400000001
772,1064 NX Netherlands,499000.0,135.0,128.35294117647058,371386.4117647059,52.3678191,4.832800499999999
773,1064 SC Netherlands,947500.0,218.0,363.6666666666667,554439.5,52.3771393,4.8251647
774,1064 SX Netherlands,275000.0,94.0,,196429.7564102564,52.3783386,4.822212299999999
775,1064 VT Netherlands,445000.0,115.0,1191.0,3316667.972972973,52.3754961,4.8160953
776,1064 WP Netherlands,350000.0,100.0,,222584.29126213593,52.3647363,4.8308863
777,1065 AP Netherlands,370000.0,87.0,90.625,210249.3125,52.3595871,4.825343
778,1065 BA Netherlands,40000.0,21.0,79.53333333333333,228200.0,52.3624075,4.8230905
779,1065 CN Netherlands,259000.0,73.0,,182000.0,52.3574716,4.828437800000001
780,1065 DB Netherlands,325000.0,81.0,,276865.43076923076,52.35501,4.8324761
781,1065 EB Netherlands,199000.0,60.0,,149461.53846153847,52.356886,4.828137
782,1065 EC Netherlands,240000.0,63.0,,139677.77777777778,52.3566075,4.8281698
783,1065 EG Netherlands,436900.0,108.5,,311114.1818181818,52.3558998,4.832479699999999
784,1065 EN Netherlands,225000.0,57.0,,153608.0,52.3528257,4.8324153
785,1065 GN Netherlands,282000.0,87.5,,131180.0,52.3538958,4.8268242
786,1065 JP Netherlands,250000.0,72.0,,177736.0,52.3530445,4.8273487
787,1065 LT Netherlands,248750.0,77.5,,157149.57894736843,52.35719959999999,4.820382299999999
788,1065 LX Netherlands,239000.0,71.0,,142571.42857142858,52.35667189999999,4.8209175
789,1065 SM Netherlands,240000.0,56.0,,170555.55555555556,52.3553004,4.8311661
790,1065 XL Netherlands,250000.0,69.0,,143933.33333333334,52.3629574,4.8310407
791,1066 AA Netherlands,435000.0,104.0,,168599.875,52.3499482,4.8302057
792,1066 CE Netherlands,1345000.0,360.0,381.6190476190476,530631.9047619047,52.3413566,4.802417999999999
793,1066 CP Netherlands,1495000.0,185.0,2067.5,627500.0,52.3417837,4.8144012
794,1066 DH Netherlands,399000.0,138.0,,188240.29090909092,52.3432772,4.811006799999999
795,1066 EL Netherlands,225000.0,56.0,96.4,976300.0,52.3422845,4.797416399999999
796,1066 ET Netherlands,135000.0,24.0,176.0,139337.63636363635,52.3417866,4.796704
797,1066 GG Netherlands,16000.0,16.0,,167985.4756097561,52.3437575,4.826790799999999
798,1066 GL Netherlands,400000.0,111.0,124.5,244719.66666666666,52.344112,4.8257444
799,1066 GZ Netherlands,375000.0,109.0,111.625,275779.125,52.3433217,4.8239934
800,1066 JG Netherlands,750000.0,197.0,257.3333333333333,426051.5833333333,52.3447807,4.820834400000001
801,1066 JV Netherlands,450000.0,128.0,117.0,209579.6,52.3436854,4.8099302
802,1066 JW Netherlands,535000.0,173.0,125.36363636363636,269456.7272727273,52.3429034,4.809911
803,1066 JX Netherlands,375000.0,110.0,114.8,287467.0,52.3437363,4.8093132
804,1066 KE Netherlands,330000.0,92.0,119.27272727272727,236971.27272727274,52.3493726,4.818779699999999
805,1066 LC Netherlands,359000.0,100.0,105.625,246283.3125,52.3476904,4.812901399999999
806,1066 NN Netherlands,300000.0,102.0,98.8,226350.95,52.3491571,4.8077162
807,1066 PW Netherlands,549500.0,170.0,,435414.32352941175,52.3372111,4.8148564
808,1066 RA Netherlands,325000.0,100.0,,786472.6029411765,52.3457757,4.8091399
809,1066 SE Netherlands,467000.0,135.0,,440536.5625,52.3461897,4.8129502
810,1066 WN Netherlands,348800.0,110.0,109.83333333333333,255750.16666666666,52.3372111,4.8148564
811,1066 WV Netherlands,350000.0,118.0,113.63636363636364,254687.36363636365,52.3433158,4.807865899999999
812,1066 WX Netherlands,335000.0,109.0,113.1304347826087,348673.39130434784,52.342477,4.805426199999999
813,1066 XT Netherlands,434500.0,114.5,2031.0,2458376.774566474,52.3487812,4.8324219
814,1067 AX Netherlands,325000.0,104.0,111.0909090909091,164546.0,52.3831478,4.7983711
815,1067 BN Netherlands,175000.0,65.0,,130330.21052631579,52.3823668,4.8040216
816,1067 GB Netherlands,330000.0,102.0,132.2,162883.66666666666,52.37602469999999,4.797423
817,1067 GL Netherlands,160000.0,43.0,,163930.0,52.3787059,4.7979895
818,1067 JG Netherlands,275000.0,105.0,,177413.91025641025,52.3792227,4.8006997
819,1067 JK Netherlands,225000.0,65.0,,166643.18181818182,52.3792375,4.798246799999999
820,1067 LG Netherlands,224000.0,75.0,78.54545454545455,162465.5172413793,52.3779195,4.7952976
821,1067 LH Netherlands,295000.0,108.0,85.16666666666667,150620.5,52.37855769999999,4.7953039
822,1067 MX Netherlands,297500.0,85.0,82.2,200242.29166666666,52.3763993,4.802264300000001
823,1067 RC Netherlands,325000.0,84.0,120.93333333333334,147933.33333333334,52.375535,4.7947421
824,1067 RH Netherlands,257500.0,69.0,101.71428571428571,188142.85714285713,52.3765795,4.783460199999999
825,1067 RJ Netherlands,265000.0,68.0,101.0,182375.0,52.3750249,4.7933979
826,1067 RK Netherlands,500000.0,156.0,127.66666666666667,272833.3333333333,52.3746525,4.798014
827,1067 SZ Netherlands,1120000.0,204.5,707.25,446570.625,52.37003499999999,4.7788984
828,1067 TC Netherlands,1150000.0,241.0,593.7777777777778,325845.22222222225,52.37637710000001,4.7678558
829,1067 TE Netherlands,300000.0,85.0,385.3076923076923,339317.0,52.3765795,4.783460199999999
830,1067 TJ Netherlands,695000.0,125.0,40.0,453125.0,52.3765795,4.783460199999999
831,1067 VC Netherlands,225000.0,70.0,,177166.66666666666,52.3784325,4.790062499999999
832,1067 VJ Netherlands,300000.0,109.0,114.6,245310.0,52.3798386,4.7908513
833,1067 WC Netherlands,295000.0,87.0,124.0,199990.0,52.3818382,4.791720400000001
834,1067 WH Netherlands,289000.0,100.0,121.28571428571429,220451.85714285713,52.3825358,4.7910207
835,1067 WK Netherlands,345000.0,104.0,135.8125,223220.3125,52.3823107,4.789173
836,1067 XW Netherlands,265000.0,85.0,,194302.02272727274,52.3774084,4.8045861
837,1068 CB Netherlands,245000.0,100.0,83.0,175238.0,52.3622832,4.7993821
838,1068 CP Netherlands,275000.0,96.0,,1181953.125,52.3618818,4.8072858
839,1068 CS Netherlands,37500.0,1.003,,401983.0508474576,52.3619189,4.807534899999999
840,1068 CV Netherlands,289000.0,93.0,,197589.47368421053,52.36192399999999,4.8085772
841,1068 CZ Netherlands,319000.0,97.0,,170716.0,52.3620106,4.809735799999999
842,1068 ER Netherlands,300000.0,94.0,,19517605.576923076,52.359429,4.8056443
843,1068 HV Netherlands,329000.0,119.0,103.73333333333333,450942.306122449,52.3624004,4.8042058
844,1068 JA Netherlands,200000.0,82.0,,156228.15217391305,52.357035,4.816053999999999
845,1068 JB Netherlands,220000.0,83.0,,80872.71794871795,52.35694300000001,4.8156148
846,1068 JD Netherlands,295000.0,95.0,,128010.2,52.3568113,4.8143981
847,1068 JR Netherlands,264850.0,77.0,,139499.2972972973,52.3555897,4.8108469
848,1068 JS Netherlands,240000.0,79.0,,110828.11764705883,52.3555257,4.8106276
849,1068 JZ Netherlands,275000.0,105.0,,149199.5909090909,52.354966,4.8119559
850,1068 KK Netherlands,1300000.0,198.0,536.4666666666667,548182.8666666667,52.35231899999999,4.8165844
851,1068 KL Netherlands,650000.0,152.0,292.54545454545456,361476.9090909091,52.3525129,4.8139252
852,1068 MS Netherlands,280000.0,75.0,136.25,272971.1538461539,52.35403669999999,4.8038949
853,1068 NA Netherlands,640000.0,178.0,386.1,421564.4,52.3515536,4.8033991
854,1068 ND Netherlands,225000.0,81.0,,154982.57894736843,52.3542366,4.8116718
855,1068 NM Netherlands,275000.0,130.0,84.33333333333333,147834.94444444444,52.3531322,4.8063727
856,1068 NV Netherlands,260000.0,85.0,69.0,211550.0,52.3561705,4.8156981
857,1068 PM Netherlands,471666.6666666667,156.66666666666666,,256451.98598130842,52.36454790000001,4.8084548
858,1068 RB Netherlands,425000.0,139.0,138.0,417500.0,52.3545917,4.8052673
859,1068 RM Netherlands,185000.0,59.0,,147136.36363636365,52.3550297,4.8029571
860,1068 VM Netherlands,350000.0,90.0,,296100.45,52.3668254,4.8073533
861,1068 WB Netherlands,299000.0,95.0,68.16666666666667,171708.33333333334,52.3540298,4.8135093
862,1068 WD Netherlands,275000.0,75.0,56.04,167907.2,52.3540159,4.8143608
863,1068 WX Netherlands,245000.0,82.0,,197592.53125,52.3572126,4.8082129
864,1068 ZV Netherlands,399000.0,144.0,,335000.0,52.3598772,4.8054035
865,1068 ZW Netherlands,345000.0,127.0,,300939.55555555556,52.3644141,4.8031711
866,1069 BX Netherlands,235000.0,79.0,,180103.86363636365,52.3611897,4.7892228
867,1069 CL Netherlands,195000.0,55.0,2115.0,544862.5629139073,52.3584227,4.7966294
868,1069 DT Netherlands,259000.0,82.0,,167772.72727272726,52.3570417,4.7936679
869,1069 EC Netherlands,180125.0,67.25,17.928571428571427,159655.0612244898,52.3556027,4.789899999999999
870,1069 EE Netherlands,183000.0,65.6,18.142857142857142,24573.928571428572,52.3575658,4.7888607
871,1069 EG Netherlands,173000.0,61.333333333333336,,135762.20512820513,52.3583994,4.788409
872,1069 EH Netherlands,225000.0,72.0,18.125,144626.4699453552,52.3592419,4.7879572
873,1069 EJ Netherlands,25000.0,16.0,16.166666666666668,14157.5,52.3562251,4.7867796
874,1069 EV Netherlands,249000.0,100.0,,151631.26829268291,52.355732,4.7852597
875,1069 EX Netherlands,399000.0,147.0,133.04347826086956,186309.21739130435,52.3552233,4.7877326
876,1069 KD Netherlands,376266.6666666667,132.33333333333334,,243180.6265060241,52.3524604,4.7959455
877,1069 KE Netherlands,290000.0,97.0,,193576.19444444444,52.3576375,4.7901227
878,1069 KG Netherlands,450000.0,168.0,,298992.35294117645,52.3532106,4.7968015
879,1069 KW Netherlands,300000.0,99.0,,141115.0357142857,52.35014320000001,4.7962846
880,1069 LC Netherlands,220000.0,94.0,,130550.06896551725,52.3481849,4.796486799999999
881,1069 LK Netherlands,375000.0,127.0,,197540.46451612902,52.35597869999999,4.7913922
882,1069 LW Netherlands,539000.0,145.0,399.0,446189.0588235294,52.35200829999999,4.779439099999999
883,1069 MD Netherlands,1245007.5,237.5,527.6666666666666,457477.5,52.3491881,4.7922172
884,1069 NC Netherlands,342500.0,109.0,220.0,135229.72413793104,52.3546158,4.777906199999999
885,1069 ND Netherlands,235000.0,79.0,,183583.33333333334,52.3543488,4.7784089
886,1069 NK Netherlands,269000.0,81.0,,176769.23076923078,52.3543815,4.7760305
887,1069 NV Netherlands,365000.0,108.0,172.14285714285714,265215.85714285716,52.3541521,4.7803638
888,1069 PG Netherlands,309250.0,88.0,149.1875,243691.3125,52.3527176,4.7845667
889,1069 PX Netherlands,185000.0,63.0,,171376.65217391305,52.3507865,4.783066400000001
890,1069 RA Netherlands,179000.0,42.0,,138908.0,52.3632651,4.794421499999999
891,1069 RG Netherlands,225000.0,71.0,,147862.5,52.3532562,4.7951276
892,1069 RH Netherlands,274500.0,73.0,,143573.7931034483,52.3576375,4.7901227
893,1069 RR Netherlands,305000.0,72.0,,191886.8849557522,52.3503602,4.8001565
894,1069 RS Netherlands,350000.0,117.5,,251815.43902439025,52.3498461,4.7979764
895,1069 RT Netherlands,225000.0,70.0,,185707.5846153846,52.3501783,4.796107999999999
896,1069 SZ Netherlands,325000.0,97.0,141.0,173271.0,52.3510721,4.8005287
897,1069 TD Netherlands,425000.0,120.0,,209127.55,52.3576375,4.7901227
898,1069 TR Netherlands,184800.0,60.4,17.666666666666668,127519.53548387096,52.3538909,4.7908624
899,1069 TS Netherlands,175000.0,61.0,18.0,124169.75903614458,52.3547332,4.7903667
900,1069 WD Netherlands,257000.0,96.0,109.42857142857143,188796.7142857143,52.35747869999999,4.7841057
901,1071 CM Netherlands,4500000.0,318.0,242.0,1112300.5714285714,52.3606711,4.8845358
902,1071 CN Netherlands,5200000.0,454.0,136.0,1994606.3636363635,52.3603062,4.8832627
903,1071 CP Netherlands,1750000.0,181.0,177.14285714285714,1307593.5,52.3601778,4.8826624
904,1071 EW Netherlands,1800000.0,194.0,228.5,1257311.0625,52.3576067,4.8741481
905,1071 GE Netherlands,475000.0,61.0,135.66666666666666,684079.8787878788,52.35840959999999,4.876927999999999
906,1071 GG Netherlands,1950000.0,199.5,,521297.5,52.3582085,4.876137600000001
907,1071 GH Netherlands,1790000.0,204.5,17.0,562429.448275862,52.357429,4.8725648
908,1071 GJ Netherlands,1875000.0,196.0,120.83333333333333,784284.5714285715,52.357429,4.8725648
909,1071 GM Netherlands,2750000.0,221.0,491.7142857142857,1651168.3376623376,52.35618059999999,4.8686453
910,1071 GS Netherlands,4250000.0,390.0,195.0,1021286.9090909091,52.3572162,4.8753123
911,1071 HC Netherlands,2195000.0,216.0,,732579.7826086957,52.3590531,4.8760838
912,1071 HT Netherlands,1495000.0,159.0,88.0,894796.125,52.3560262,4.8703352
913,1071 HV Netherlands,1549500.0,176.5,148.5,744431.76,52.355808,4.8697652
914,1071 JW Netherlands,2500000.0,195.0,163.0,2632718.3333333335,52.35351259999999,4.8751642
915,1071 KG Netherlands,1095000.0,154.0,125.5,1885043.4782608696,52.3558066,4.8756515
916,1071 KV Netherlands,1825000.0,228.0,135.36363636363637,977698.4375,52.3578653,4.8778443
917,1071 LR Netherlands,1295000.0,167.0,333.0,886730.7692307692,52.3561385,4.8775853
918,1071 LX Netherlands,1498000.0,189.0,157.0,648022.7407407408,52.3544771,4.8863087
919,1071 MC Netherlands,925000.0,115.0,113.0,464035.67741935485,52.354964,4.8720209
920,1071 MD Netherlands,2350000.0,291.0,121.25,890576.6428571428,52.3546628,4.8709529
921,1071 MX Netherlands,3995000.0,395.0,135.16666666666666,747401.9,52.3533964,4.8711584
922,1071 NK Netherlands,2500000.0,268.0,145.83333333333334,1179504.391304348,52.3533964,4.8711584
923,1071 PJ Netherlands,2200000.0,316.0,,807600.0,52.3537421,4.8721231
924,1071 RA Netherlands,1975000.0,352.0,103.0,523114.14814814815,52.3566148,4.8775651
925,1071 RD Netherlands,1780000.0,251.0,160.0,544278.1428571428,52.3545388,4.879688
926,1071 RJ Netherlands,949000.0,152.0,204.0,477696.4166666667,52.3547804,4.8836631
927,1071 RZ Netherlands,3075000.0,321.5,1378.0,3020732.035714286,52.3615044,4.8839391
928,1071 TV Netherlands,950000.0,113.0,86.42857142857143,586873.8285714285,52.35305109999999,4.8849157
929,1071 VA Netherlands,700000.0,109.0,87.0,514965.46153846156,52.3566148,4.8775651
930,1071 VV Netherlands,600000.0,105.0,,549082.5172413794,52.3535059,4.8840739
931,1071 WH Netherlands,750000.0,96.0,,530296.274509804,52.3517442,4.8798373
932,1071 XD Netherlands,800000.0,125.0,150.66666666666666,287319.59375,52.3615044,4.8839391
933,1071 XG Netherlands,495000.0,66.0,377.0,863679.3170731707,52.35383,4.882088599999999
934,1071 ZJ Netherlands,699000.0,89.0,132.66666666666666,662770.5,52.3615044,4.8839391
935,1071 ZW Netherlands,1650000.0,203.0,,828779.92,52.3615044,4.8839391
936,1071 ZX Netherlands,4450000.0,329.0,147.05555555555554,1818956.111111111,52.3615044,4.8839391
937,1072 AD Netherlands,749000.0,96.0,131.125,587213.6666666666,52.3583372,4.8894799
938,1072 BH Netherlands,1500000.0,199.0,113.42857142857143,692817.5161290322,52.3573517,4.890225
939,1072 CA Netherlands,200000.0,28.0,105.42857142857143,439584.5,52.3558567,4.8873793
940,1072 CC Netherlands,592000.0,91.5,108.42857142857143,316394.2162162162,52.3557827,4.8889948
941,1072 CJ Netherlands,462500.0,84.0,135.4,403421.8181818182,52.35561629999999,4.8900388
942,1072 CP Netherlands,995000.0,155.0,62.875,484362.13333333336,52.35510679999999,4.890719799999999
943,1072 EJ Netherlands,334500.0,58.5,89.0,277000.0,52.35409809999999,4.888089
944,1072 HT Netherlands,350000.0,62.0,,270889.93023255817,52.3514968,4.8892924
945,1072 JK Netherlands,379000.0,61.0,113.2,461348.6956521739,52.3508838,4.8910019
946,1072 KN Netherlands,475000.0,63.0,,248423.3,52.3490549,4.8878375
947,1072 LZ Netherlands,375000.0,68.0,,235670.0,52.3537768,4.888621
948,1072 PD Netherlands,350000.0,51.0,83.5,407200.0,52.35223879999999,4.8948029
949,1072 RA Netherlands,290000.0,43.0,,222013.82857142857,52.3501911,4.8930057
950,1072 SC Netherlands,400000.0,63.0,149.0,383361.6923076923,52.350838,4.8929545
951,1072 SR Netherlands,1900000.0,426.0,128.4,40077.8,52.3522087,4.8918824
952,1072 TH Netherlands,325000.0,44.0,145.05882352941177,7401928.112903226,52.3504371,4.891637999999999
953,1072 TM Netherlands,345000.0,52.0,725.0,564012.4782608695,52.3532857,4.8893751
954,1072 VM Netherlands,225000.0,31.0,113.52941176470588,280065.6222222222,52.35570329999999,4.891491
955,1072 VZ Netherlands,700000.0,123.0,94.0,259235.7,52.3563966,4.887519999999999
956,1072 XL Netherlands,1100000.0,193.0,102.0,625205.0833333334,52.3560732,4.8918393
957,1072 XM Netherlands,649500.0,104.0,105.45454545454545,425509.95454545453,52.3570162,4.8873809
958,1073 AP Netherlands,399000.0,62.0,,254885.5,52.3483583,4.895330299999999
959,1073 AZ Netherlands,649000.0,98.0,175.0,722478.2608695652,52.35762,4.8985452
960,1073 BE Netherlands,264500.0,46.0,92.73529411764706,1009140.2782608696,52.3559703,4.8951725
961,1073 BK Netherlands,375000.0,70.0,,264529.3333333333,52.3557613,4.894631700000001
962,1073 BR Netherlands,219000.0,27.0,125.42857142857143,690735.207920792,52.3569019,4.8987586
963,1073 CR Netherlands,950000.0,147.0,162.88888888888889,372319.84444444446,52.3549746,4.8956533
964,1073 GN Netherlands,400000.0,66.0,,217775.0,52.3505865,4.8951442
965,1073 GT Netherlands,275000.0,44.0,,215917.64705882352,52.3512451,4.9000978
966,1073 GW Netherlands,285000.0,44.0,,241637.80952380953,52.3514024,4.9011969
967,1073 HN Netherlands,285000.0,57.0,,218777.77777777778,52.3492143,4.8958492
968,1073 HS Netherlands,350000.0,59.0,,234851.2,52.3491766,4.895424
969,1073 LL Netherlands,850000.0,175.0,87.66666666666667,1231699.836734694,52.35718379999999,4.899562899999999
970,1073 RA Netherlands,339500.0,50.0,,224750.0,52.3489684,4.901605099999999
971,1073 RR Netherlands,685000.0,113.0,105.03225806451613,667041.9318181818,52.3519417,4.901191
972,1073 SB Netherlands,440000.0,80.0,,356027.4137931034,52.3516205,4.899579999999999
973,1073 SE Netherlands,440000.0,79.0,117.32,5089922.736842105,52.35198159999999,4.9021593
974,1073 SN Netherlands,399000.0,66.0,147.0,255468.2,52.35212509999999,4.8998973
975,1073 VB Netherlands,225000.0,34.0,82.33333333333333,1966474.5762711863,52.3538423,4.900025299999999
976,1073 VC Netherlands,570000.0,113.0,98.0,170628.37037037036,52.3542067,4.9012249
977,1073 VD Netherlands,325000.0,46.0,38.0,2488697.4166666665,52.3539594,4.9000827
978,1073 VW Netherlands,849000.0,84.0,975.0,3048540.4210526315,52.3570122,4.897172
979,1073 XB Netherlands,1425000.0,214.0,269.1818181818182,376415.756097561,52.3566854,4.8963977
980,1074 AG Netherlands,440000.0,67.0,114.0,537891.8857142857,52.3540839,4.9019601
981,1074 AW Netherlands,550000.0,90.0,239.0,1710529.25,52.3579596,4.9002443
982,1074 BP Netherlands,280000.0,29.0,118.625,430026.0,52.3574731,4.9021726
983,1074 CG Netherlands,1195000.0,185.0,179.6,458021.9743589744,52.3570647,4.9012083
984,1074 CP Netherlands,425000.0,59.0,146.85714285714286,351400.9315068493,52.3562094,4.900836
985,1074 CX Netherlands,517500.0,79.5,,396455.25,52.35570939999999,4.9038359
986,1074 EE Netherlands,269000.0,46.0,41.0,220936.41666666666,52.35438629999999,4.9055824
987,1074 EH Netherlands,425000.0,60.0,101.8,339342.2916666667,52.3538217,4.9037831
988,1074 EK Netherlands,415000.0,67.0,100.38461538461539,332824.28571428574,52.3545127,4.905727800000001
989,1074 GS Netherlands,500000.0,70.0,,208928.57142857142,52.3513488,4.905674100000001
990,1074 HT Netherlands,1295000.0,266.0,150.0,2314443.25,52.35636050000001,4.904827
991,1074 HX Netherlands,500000.0,91.0,119.73333333333333,762536.4114285714,52.3542283,4.9065235
992,1074 JJ Netherlands,424000.0,65.0,101.61538461538461,214566.9207920792,52.3532135,4.9044943
993,1074 TL Netherlands,249900.0,51.0,,208666.66666666666,52.3509128,4.9045486
994,1074 TS Netherlands,375000.0,69.0,,247565.0,52.35021219999999,4.904659
995,1074 VA Netherlands,425000.0,70.0,91.0,7791822.0227272725,52.3517282,4.903938
996,1074 XB Netherlands,429000.0,76.0,,289230.76923076925,52.3542705,4.9036314
997,1074 XL Netherlands,537500.0,84.0,84.0909090909091,616091.7,52.3548087,4.903376
998,1074 XX Netherlands,1400000.0,267.0,165.0,274815.92,52.351518,4.90679
999,1075 AZ Netherlands,5400000.0,365.0,567.7692307692307,702353.0476190476,52.3538352,4.8626252
1000,1075 BH Netherlands,6400000.0,440.0,,1212633.923076923,52.352321,4.8636853
1001,1075 BX Netherlands,4850000.0,494.0,1153.0,2641421.052631579,52.3528067,4.8577056
1002,1075 CD Netherlands,1150000.0,150.0,117.0,528280.1081081082,52.3526329,4.8570325
1003,1075 CT Netherlands,995000.0,152.0,142.0,882874.6363636364,52.3519118,4.8585822
1004,1075 EC Netherlands,630000.0,79.0,340.0,1123116.2758620689,52.3532072,4.8628675
1005,1075 ET Netherlands,2500000.0,294.0,,697022.8,52.3531182,4.8650996
1006,1075 GG Netherlands,1045000.0,93.0,138.6,825323.5,52.3532357,4.8652597
1007,1075 HA Netherlands,749000.0,78.0,157.0,668761.1212121212,52.3527902,4.8661309
1008,1075 HM Netherlands,1272500.0,153.5,217.33333333333334,892794.196969697,52.3522613,4.8664454
1009,1075 RB Netherlands,1150000.0,130.0,,598896.275862069,52.3516365,4.8613449
1010,1075 RZ Netherlands,1850000.0,405.0,198.0,637618.3333333334,52.351271,4.8559773
1011,1075 SB Netherlands,449000.0,72.0,147.0,517992.275862069,52.3509421,4.8547924
1012,1075 SJ Netherlands,325000.0,59.0,142.9,1021522.0,52.3508947,4.8542352
1013,1075 TE Netherlands,435000.0,78.0,,285811.2166666667,52.3515641,4.8566509
1014,1075 VM Netherlands,295000.0,46.0,,233365.88888888888,52.34943879999999,4.852271399999999
1015,1075 VT Netherlands,450000.0,74.0,173.0,467807.5,52.35412780000001,4.8556789
1016,1075 VZ Netherlands,2400000.0,407.0,,503350.1904761905,52.3509699,4.856979
1017,1075 XA Netherlands,429000.0,61.0,,331323.45454545453,52.3500562,4.8576504
1018,1076 AN Netherlands,585000.0,107.0,,38039852.941176474,52.3460627,4.8671345
1019,1076 BN Netherlands,1700000.0,179.0,128.8235294117647,681756.2424242424,52.3431153,4.8631775
1020,1076 CH Netherlands,1100000.0,150.0,,372830.6060606061,52.3432205,4.8585537
1021,1076 DK Netherlands,390000.0,79.0,343.0,2051664.482352941,52.3457865,4.8555293
1022,1076 DZ Netherlands,650000.0,108.0,,513751.9516129032,52.3467541,4.8548573
1023,1076 JA Netherlands,450000.0,88.0,,2689548.3870967743,52.3447451,4.8638773
1024,1076 JC Netherlands,400000.0,68.0,,342110.0,52.3444049,4.8621351
1025,1076 KW Netherlands,425000.0,68.0,,379145.375,52.3447188,4.8599594
1026,1076 LK Netherlands,1698000.0,214.0,122.0,468660.9666666667,52.3451857,4.8618763
1027,1076 NG Netherlands,415000.0,65.0,156.0,661751.12,52.34572480000001,4.8659057
1028,1076 PN Netherlands,375000.0,60.0,,277364.5833333333,52.3447341,4.8654477
1029,1076 RG Netherlands,500000.0,86.0,149.0,28188666.666666668,52.3457346,4.8640564
1030,1076 TG Netherlands,315000.0,42.0,,2654764.0,52.3482119,4.8612681
1031,1076 XL Netherlands,275000.0,42.0,,217029.41176470587,52.348726,4.861672899999999
1032,1077 AW Netherlands,1495000.0,176.0,,1946147.7,52.3502008,4.8679667
1033,1077 AX Netherlands,899000.0,138.0,,2510795.4,52.35017939999999,4.867189
1034,1077 BR Netherlands,1495000.0,253.0,,732460.0,52.3435465,4.8738549
1035,1077 DA Netherlands,550000.0,113.0,,397628.25,52.3489546,4.8832595
1036,1077 DE Netherlands,275000.0,50.0,,60380391.0,52.3435465,4.8738549
1037,1077 EE Netherlands,825000.0,121.0,566.0,756666.6666666666,52.348884,4.8793564
1038,1077 EN Netherlands,1299000.0,187.0,,1676187.5,52.3488595,4.8715927
1039,1077 EV Netherlands,795000.0,110.0,250.0,688070.6363636364,52.34914089999999,4.8681258
1040,1077 GA Netherlands,1250000.0,222.0,196.66666666666666,853294.0,52.3484422,4.8686623
1041,1077 GD Netherlands,3800000.0,380.0,135.8,1057041.6666666667,52.3435465,4.8738549
1042,1077 JX Netherlands,942500.0,161.0,192.0,1499902.1666666667,52.3425348,4.876361999999999
1043,1077 KM Netherlands,785000.0,115.0,,240785.44,52.3441606,4.8761379
1044,1077 KZ Netherlands,2995000.0,264.0,256.7142857142857,941893.7857142857,52.3430019,4.8742288
1045,1077 LK Netherlands,1495000.0,224.0,143.0,934963.2307692308,52.3499874,4.8767606
1046,1077 LM Netherlands,1195000.0,207.0,,889369.4,52.3499451,4.8753081
1047,1077 LP Netherlands,1575000.0,242.0,154.8,1421866.6666666667,52.3500683,4.874704899999999
1048,1077 MD Netherlands,1350000.0,182.0,,1752894.7368421052,52.347706,4.8750257
1049,1077 MG Netherlands,1295000.0,203.0,,661996.4285714285,52.3435465,4.8738549
1050,1077 NA Netherlands,1500000.0,224.0,,540615.3333333334,52.3489546,4.8832595
1051,1077 PB Netherlands,998000.0,124.0,,707401.6,52.3482503,4.8720548
1052,1077 PC Netherlands,1045000.0,122.0,,734133.3333333334,52.3478101,4.8721039
1053,1077 PR Netherlands,1250000.0,217.0,,766666.6666666666,52.3496604,4.869763499999999
1054,1077 PX Netherlands,1750000.0,250.0,142.57142857142858,866786.3076923077,52.3403943,4.8698422
1055,1077 RH Netherlands,1500000.0,252.0,,834890.0,52.3435465,4.8738549
1056,1077 RJ Netherlands,1995000.0,240.0,180.0,760439.0,52.349664,4.8685453
1057,1077 RM Netherlands,1000000.0,152.0,221.0,8337440.909090909,52.347202,4.8707461
1058,1077 RZ Netherlands,900000.0,128.0,,535179.7777777778,52.3468026,4.8760341
1059,1077 SM Netherlands,2900000.0,272.0,142.85714285714286,1021362.0,52.3478589,4.8813347
1060,1077 TD Netherlands,799000.0,117.0,,660177.4666666667,52.3435465,4.8738549
1061,1077 TG Netherlands,750000.0,127.0,,582190.5172413794,52.3435465,4.8738549
1062,1077 TK Netherlands,650000.0,109.0,,454023.2,52.3435465,4.8738549
1063,1077 TP Netherlands,670000.0,103.5,,3140686.274509804,52.347123,4.8711726
1064,1077 TR Netherlands,500000.0,114.0,,3004779.069767442,52.3435465,4.8738549
1065,1077 VG Netherlands,689000.0,112.0,,423839.53846153844,52.3435465,4.8738549
1066,1077 VZ Netherlands,2000000.0,319.0,240.5,1413922.0,52.3446872,4.8836749
1067,1077 WK Netherlands,4400000.0,365.0,394.14285714285717,1772600.857142857,52.3453583,4.8850761
1068,1077 XG Netherlands,100000.0,26.0,214.1904761904762,738885.1904761905,52.3435465,4.8738549
1069,1077 XL Netherlands,1100000.0,136.0,155.44,731959.72,52.3421635,4.8695134
1070,1077 XP Netherlands,550000.0,107.0,,338279.7916666667,52.34225929999999,4.8688079
1071,1077 XR Netherlands,524500.0,105.0,,268619.2,52.3403943,4.8698422
1072,1077 ZC Netherlands,795000.0,141.0,,4608181.818181818,52.3403943,4.8698422
1073,1077 ZM Netherlands,700000.0,117.0,,538423.0769230769,52.3455019,4.8683738
1074,1078 AN Netherlands,449000.0,60.0,95.0,322884.64705882355,52.3478179,4.8972148
1075,1078 BE Netherlands,525000.0,90.0,,1220349.6153846155,52.3477227,4.889481400000001
1076,1078 BK Netherlands,350000.0,62.0,145.05882352941177,1703704.105263158,52.3474346,4.8979969
1077,1078 BS Netherlands,395000.0,64.0,157.0,2862238.085106383,52.3478922,4.8999878
1078,1078 CX Netherlands,425000.0,71.0,99.0,315895.73913043475,52.3479986,4.9018212
1079,1078 EW Netherlands,725000.0,95.0,385.0,1303415.4814814816,52.3472996,4.8914529
1080,1078 GC Netherlands,800000.0,149.0,,572333.3333333334,52.3418718,4.8916602
1081,1078 HK Netherlands,950000.0,165.0,185.0,375271.2916666667,52.3462358,4.8949869
1082,1078 JR Netherlands,490000.0,70.0,,3160599.882352941,52.3454134,4.891767499999999
1083,1078 KN Netherlands,825000.0,166.0,,352900.0,52.3458714,4.889517
1084,1078 LP Netherlands,362000.0,63.5,216.0,598993.0,52.3446604,4.8987172
1085,1078 ME Netherlands,597000.0,97.5,,410814.92307692306,52.3460393,4.897454499999999
1086,1078 MT Netherlands,455000.0,82.0,,405587.625,52.3453879,4.8985918
1087,1078 NJ Netherlands,649000.0,100.0,,1537853.3333333333,52.3452583,4.9020566
1088,1078 NS Netherlands,600000.0,103.0,,570000.0,52.3438034,4.897963499999999
1089,1078 NW Netherlands,595000.0,113.0,427.0,1961076.923076923,52.3430852,4.8959757
1090,1078 RP Netherlands,750000.0,117.0,,393697.4375,52.3492628,4.9098942
1091,1078 TE Netherlands,500000.0,100.0,,254282.66666666666,52.3479728,4.9087193
1092,1078 TH Netherlands,475000.0,88.0,141.5,245141.33333333334,52.3441217,4.8922031
1093,1078 TZ Netherlands,325000.0,55.0,154.7,373010.54054054053,52.34878339999999,4.90692
1094,1078 VK Netherlands,545000.0,83.0,,352650.0,52.3434228,4.8950328
1095,1078 VT Netherlands,675000.0,126.0,,320528.5714285714,52.345507,4.8926469
1096,1078 XH Netherlands,799500.0,121.0,,454830.4137931034,52.3431717,4.8930105
1097,1079 AJ Netherlands,695000.0,142.0,,49712369.6,52.3435107,4.898906
1098,1079 AR Netherlands,600000.0,140.0,,378035.71428571426,52.3424378,4.895909500000001
1099,1079 CV Netherlands,300000.0,67.0,94.66666666666667,169621.33333333334,52.3428786,4.9025522
1100,1079 DC Netherlands,449000.0,90.0,144.0,373279.8461538461,52.3417646,4.896122399999999
1101,1079 DP Netherlands,285000.0,47.0,141.0,1397385.288888889,52.3439795,4.901424899999999
1102,1079 DS Netherlands,429000.0,64.0,,277300.0,52.3430658,4.9021686
1103,1079 EB Netherlands,525000.0,83.5,,401827.7565217391,52.3436386,4.90159
1104,1079 GM Netherlands,750000.0,118.0,124.0,465106.15,52.3421879,4.9028826
1105,1079 HD Netherlands,385000.0,77.0,167.5,7580700.916666667,52.342536,4.9067088
1106,1079 HJ Netherlands,347005.5,61.5,,469000.0,52.3459726,4.9052921
1107,1079 HV Netherlands,699000.0,150.0,,367916.6666666667,52.3414946,4.906984200000001
1108,1079 KR Netherlands,270000.0,56.0,,198945.47368421053,52.3450216,4.910159999999999
1109,1079 LE Netherlands,865000.0,164.0,113.0,799612.1165048544,52.3465092,4.9113034
1110,1079 LS Netherlands,675000.0,100.0,,254708.33333333334,52.3416273,4.910900799999999
1111,1079 LW Netherlands,525000.0,88.0,,281594.3333333333,52.3420394,4.910588199999999
1112,1079 NE Netherlands,575000.0,105.0,,257400.0,52.3424577,4.911786999999999
1113,1079 NJ Netherlands,325000.0,55.0,,312177.4193548387,52.3410575,4.907795999999999
1114,1079 NN Netherlands,599000.0,113.0,94.0,216043.29411764705,52.3406653,4.9041758
1115,1079 NT Netherlands,395000.0,72.0,,363500.0,52.3410558,4.8964237
1116,1079 PE Netherlands,875000.0,163.0,,390453.8787878788,52.3398873,4.894250299999999
1117,1079 RH Netherlands,995000.0,144.0,4843.0,5206325.142857143,52.3376834,4.8959474
1118,1079 RK Netherlands,4690000.0,529.0,1209.0,824800.3636363636,52.33807849999999,4.9001982
1119,1079 SV Netherlands,435000.0,73.0,129.66666666666666,383122.26666666666,52.341444,4.910037
1120,1079 TC Netherlands,375000.0,73.0,,326738.2631578947,52.3422031,4.9088402
1121,1079 TL Netherlands,749000.0,138.0,,359347.61904761905,52.3409641,4.909147
1122,1079 TW Netherlands,629011.0,109.0,,472954.25,52.3438259,4.9056383
1123,1079 VA Netherlands,275000.0,50.0,,231083.33333333334,52.34508539999999,4.9081341
1124,1079 VX Netherlands,349000.0,58.0,186.0,1476194.1538461538,52.34165669999999,4.9048547
1125,1079 WJ Netherlands,299000.0,59.0,,239830.2142857143,52.3407928,4.904599999999999
1126,1079 WP Netherlands,324500.0,52.0,,304509.8039215686,52.3408167,4.903836699999999
1127,1079 XA Netherlands,385000.0,70.0,,222756.7741935484,52.3424643,4.9045378
1128,1079 XC Netherlands,475000.0,79.0,,272500.0,52.3425131,4.9032899
1129,1081 BG Netherlands,619000.0,166.0,108.85714285714286,439300.14285714284,52.32757429999999,4.864959799999999
1130,1081 BH Netherlands,995000.0,244.0,125.83333333333333,369608.3333333333,52.3277535,4.862816
1131,1081 BK Netherlands,575000.0,174.0,89.4,435000.0,52.3275617,4.8600897
1132,1081 EJ Netherlands,399000.0,92.0,,18872240.740740743,52.3246115,4.8596113
1133,1081 GG Netherlands,325000.0,82.5,,2802725.652173913,52.3284852,4.8656679
1134,1081 GP Netherlands,290000.0,60.0,,203366.16129032258,52.3278992,4.859190799999999
1135,1081 GR Netherlands,425000.0,85.0,,206109.58823529413,52.3280514,4.859057000000001
1136,1081 HK Netherlands,1195000.0,236.0,95.16,647807.04,52.3313153,4.8634048
1137,1081 HT Netherlands,2300000.0,265.0,640.0,1719827.0,52.3320383,4.8602566
1138,1081 JP Netherlands,1000000.0,187.0,173.75,742831.7272727273,52.3263454,4.8574343
1139,1081 JR Netherlands,925000.0,148.0,170.57142857142858,428589.1176470588,52.3254736,4.8574301
1140,1081 JW Netherlands,499000.0,126.0,214.0,935725.8139534884,52.3225975,4.857435
1141,1082 AH Netherlands,750000.0,166.0,277.8,475768.8,52.3238302,4.876137099999999
1142,1082 BC Netherlands,795000.0,168.0,270.25,645113.4166666666,52.3231341,4.87107
1143,1082 BH Netherlands,625000.0,118.0,91.29629629629629,292560.44444444444,52.3237231,4.8701097
1144,1082 BK Netherlands,389000.0,128.0,,5192920.542372881,52.32515009999999,4.8696237
1145,1082 EA Netherlands,475000.0,105.0,,244036.8,52.32593259999999,4.880132199999999
1146,1082 EH Netherlands,42500.0,17.0,,5270893.296875,52.3314299,4.8766928
1147,1082 EK Netherlands,37500.0,18.0,716.0,270495.9166666667,52.3268789,4.87242
1148,1082 EL Netherlands,575000.0,146.0,,3953374.138888889,52.3269117,4.8737546
1149,1082 EN Netherlands,360000.0,75.0,,172913.66666666666,52.3254137,4.874432000000001
1150,1082 GM Netherlands,950000.0,173.0,,6143445.297297297,52.331304,4.879366699999999
1151,1082 GP Netherlands,295000.0,80.0,,177898.3488372093,52.32631379999999,4.878910299999999
1152,1082 HE Netherlands,190000.0,34.5,,157516.7142857143,52.3314299,4.8766928
1153,1082 HN Netherlands,190000.0,34.0,,194724.14814814815,52.3275983,4.874568099999999
1154,1082 HT Netherlands,210000.0,34.0,,159668.4347826087,52.335938,4.8743398
1155,1082 KA Netherlands,42000.0,18.0,19.0,239868.34782608695,52.3301507,4.8724555
1156,1082 KK Netherlands,550000.0,131.0,,529593.0,52.33032799999999,4.8698421
1157,1082 KT Netherlands,1500000.0,197.0,,810333.3333333334,52.3304076,4.8757533
1158,1082 LT Netherlands,599000.0,118.0,109.0,516818.46341463417,52.3322882,4.8762452
1159,1082 ME Netherlands,1966666.6666666667,230.0,5914.914893617021,86747580.58646616,52.33674999999999,4.8709264
1160,1082 MK Netherlands,950000.0,115.2,2467.0,70073121.1147541,52.3366441,4.8734366
1161,1082 MR Netherlands,939000.0,117.0,,15416090.535753576,52.335938,4.8743398
1162,1082 MS Netherlands,3800000.0,381.0,2901.3709677419356,100900500.89097744,52.3369576,4.8731835
1163,1082 MT Netherlands,694800.0,125.2,2329.909090909091,43891451.06315789,52.335938,4.8743398
1164,1082 MZ Netherlands,220772.0,40.0,,584250.0,52.3314299,4.8766928
1165,1082 SH Netherlands,325000.0,63.0,,169327.77777777778,52.3334473,4.8699671
1166,1082 SL Netherlands,350000.0,71.0,,186266.66666666666,52.3341763,4.872262099999999
1167,1082 SV Netherlands,325000.0,68.0,,2782617.5263157897,52.3341915,4.8736704
